{"name": "\u571f\u513f\u80e1\u540c\u00a0\u00a0", "zone": "2\u5ba41\u5385\u00a0\u00a0", "area": "69\u5e73\u7c73\u00a0\u00a0", "district": "\u4ea4\u9053\u53e3\u79df\u623f", "money": "8800", "see_num": "33", "floor": "\u4e2d\u697c\u5c42(\u51716\u5c42)", "time": "1994\u5e74\u5efa\u677f\u697c", "orientation": "\u5357 \u5317", "city": "\u4e1c\u57ce", "latitude": "116.418938,39.946011"}
{"name": "\u4e1c\u82b1\u5e02\u5317\u91cc\u4e2d\u533a\u00a0\u00a0", "zone": "3\u5ba42\u5385\u00a0\u00a0", "area": "101\u5e73\u7c73\u00a0\u00a0", "district": "\u4e1c\u82b1\u5e02\u79df\u623f", "money": "10000", "see_num": "9", "floor": "\u4e2d\u697c\u5c42(\u51716\u5c42)", "time": "1994\u5e74\u5efa\u677f\u697c", "orientation": "\u5357 \u5317", "city": "\u4e1c\u57ce", "latitude": "116.418938,39.946011"}
{"name": "\u7b51\u534e\u5e74\u00a0\u00a0", "zone": "3\u5ba41\u5385\u00a0\u00a0", "area": "91\u5e73\u7c73\u00a0\u00a0", "district": "\u5317\u82d1\u79df\u623f", "money": "7000", "see_num": "24", "floor": "\u9ad8\u697c\u5c42(\u517125\u5c42)", "time": "2003\u5e74\u5efa\u5854\u697c", "orientation": "\u4e1c\u5357", "city": "\u671d\u9633", "latitude": "116.432802,40.043409"}
{"name": "\u5316\u5de5\u5927\u9662\u00a0\u00a0", "zone": "2\u5ba41\u5385\u00a0\u00a0", "area": "56\u5e73\u7c73\u00a0\u00a0", "district": "\u548c\u5e73\u91cc\u79df\u623f", "money": "6500", "see_num": "43", "floor": "\u4e2d\u697c\u5c42(\u51716\u5c42)", "time": "1994\u5e74\u5efa\u677f\u697c", "orientation": "\u5357 \u5317", "city": "\u4e1c\u57ce", "latitude": "116.418938,39.946011"}
{"name": "\u5317\u82d1\u5bb6\u56ed\u8309\u85dc\u56ed\u00a0\u00a0", "zone": "2\u5ba41\u5385\u00a0\u00a0", "area": "109\u5e73\u7c73\u00a0\u00a0", "district": "\u5317\u82d1\u79df\u623f", "money": "6600", "see_num": "39", "floor": "\u9ad8\u697c\u5c42(\u517125\u5c42)", "time": "2003\u5e74\u5efa\u5854\u697c", "orientation": "\u4e1c\u5357", "city": "\u671d\u9633", "latitude": "116.432802,40.043409"}
{"name": "\u65b0\u666f\u5bb6\u56ed\u4e1c\u533a\u00a0\u00a0", "zone": "1\u5ba41\u5385\u00a0\u00a0", "area": "59\u5e73\u7c73\u00a0\u00a0", "district": "\u5d07\u6587\u95e8\u79df\u623f", "money": "6800", "see_num": "35", "floor": "\u4e2d\u697c\u5c42(\u51716\u5c42)", "time": "1994\u5e74\u5efa\u677f\u697c", "orientation": "\u5357 \u5317", "city": "\u4e1c\u57ce", "latitude": "116.418938,39.946011"}
{"name": "\u5b8f\u946b\u5bb6\u56ed\u00a0\u00a0", "zone": "1\u5ba41\u5385\u00a0\u00a0", "area": "69\u5e73\u7c73\u00a0\u00a0", "district": "\u53e4\u57ce\u79df\u623f", "money": "4500", "see_num": "14", "floor": "\u4f4e\u697c\u5c42(\u51716\u5c42)", "time": "1997\u5e74\u5efa\u677f\u697c", "orientation": "\u5357 \u5317", "city": "\u77f3\u666f\u5c71", "latitude": "116.191421,39.932563"}
{"name": "\u5317\u82d15\u53f7\u9662\u4e8c\u533a\u00a0\u00a0", "zone": "2\u5ba41\u5385\u00a0\u00a0", "area": "57\u5e73\u7c73\u00a0\u00a0", "district": "\u5317\u82d1\u79df\u623f", "money": "4600", "see_num": "31", "floor": "\u9ad8\u697c\u5c42(\u517125\u5c42)", "time": "2003\u5e74\u5efa\u5854\u697c", "orientation": "\u4e1c\u5357", "city": "\u671d\u9633", "latitude": "116.432802,40.043409"}
{"name": "\u65b0\u666f\u5bb6\u56ed\u4e1c\u533a\u00a0\u00a0", "zone": "1\u5ba41\u5385\u00a0\u00a0", "area": "62\u5e73\u7c73\u00a0\u00a0", "district": "\u5d07\u6587\u95e8\u79df\u623f", "money": "7500", "see_num": "50", "floor": "\u4e2d\u697c\u5c42(\u51716\u5c42)", "time": "1994\u5e74\u5efa\u677f\u697c", "orientation": "\u5357 \u5317", "city": "\u4e1c\u57ce", "latitude": "116.418938,39.946011"}
{"name": "\u6a21\u5f0f\u53e3\u5317\u91cc\u00a0\u00a0", "zone": "2\u5ba41\u5385\u00a0\u00a0", "area": "67\u5e73\u7c73\u00a0\u00a0", "district": "\u82f9\u679c\u56ed\u79df\u623f", "money": "3500", "see_num": "30", "floor": "\u4f4e\u697c\u5c42(\u51716\u5c42)", "time": "1997\u5e74\u5efa\u677f\u697c", "orientation": "\u5357 \u5317", "city": "\u77f3\u666f\u5c71", "latitude": "116.191421,39.932563"}
{"name": "\u9996\u5f00\u5e38\u9752\u85e4\u4e8c\u671f\u00a0\u00a0", "zone": "3\u5ba41\u5385\u00a0\u00a0", "area": "92\u5e73\u7c73\u00a0\u00a0", "district": "\u4e1c\u575d\u79df\u623f", "money": "6700", "see_num": "28", "floor": "\u9ad8\u697c\u5c42(\u517125\u5c42)", "time": "2003\u5e74\u5efa\u5854\u697c", "orientation": "\u4e1c\u5357", "city": "\u671d\u9633", "latitude": "116.432802,40.043409"}
{"name": "\u671d\u9633\u9996\u5e9c\u00a0\u00a0", "zone": "2\u5ba41\u5385\u00a0\u00a0", "area": "107\u5e73\u7c73\u00a0\u00a0", "district": "\u671d\u9633\u95e8\u5185\u79df\u623f", "money": "14000", "see_num": "27", "floor": "\u4e2d\u697c\u5c42(\u51716\u5c42)", "time": "1994\u5e74\u5efa\u677f\u697c", "orientation": "\u5357 \u5317", "city": "\u4e1c\u57ce", "latitude": "116.418938,39.946011"}
{"name": "\u65b0\u57ce\u9633\u5149\u00a0\u00a0", "zone": "2\u5ba42\u5385\u00a0\u00a0", "area": "91\u5e73\u7c73\u00a0\u00a0", "district": "\u68a8\u56ed\u79df\u623f", "money": "4100", "see_num": "39", "floor": "\u4e2d\u697c\u5c42(\u517113\u5c42)", "time": "2007\u5e74\u5efa\u677f\u5854\u7ed3\u5408", "orientation": "\u4e1c", "city": "\u901a\u5dde", "latitude": "116.669921,39.88789"}
{"name": "\u6c38\u4e50\u897f\u533a\u00a0\u00a0", "zone": "2\u5ba41\u5385\u00a0\u00a0", "area": "62\u5e73\u7c73\u00a0\u00a0", "district": "\u9c81\u8c37\u79df\u623f", "money": "4000", "see_num": "20", "floor": "\u4f4e\u697c\u5c42(\u51716\u5c42)", "time": "1997\u5e74\u5efa\u677f\u697c", "orientation": "\u5357 \u5317", "city": "\u77f3\u666f\u5c71", "latitude": "116.191421,39.932563"}
{"name": "\u5317\u82d1\u5bb6\u56ed\u7ee3\u83ca\u56ed\u5357\u533a\u00a0\u00a0", "zone": "2\u5ba41\u5385\u00a0\u00a0", "area": "94\u5e73\u7c73\u00a0\u00a0", "district": "\u5317\u82d1\u79df\u623f", "money": "6800", "see_num": "28", "floor": "\u9ad8\u697c\u5c42(\u517125\u5c42)", "time": "2003\u5e74\u5efa\u5854\u697c", "orientation": "\u4e1c\u5357", "city": "\u671d\u9633", "latitude": "116.432802,40.043409"}
{"name": "\u9752\u5e74\u6c9f\u00a0\u00a0", "zone": "2\u5ba42\u5385\u00a0\u00a0", "area": "78\u5e73\u7c73\u00a0\u00a0", "district": "\u548c\u5e73\u91cc\u79df\u623f", "money": "6000", "see_num": "41", "floor": "\u4e2d\u697c\u5c42(\u51716\u5c42)", "time": "1994\u5e74\u5efa\u677f\u697c", "orientation": "\u5357 \u5317", "city": "\u4e1c\u57ce", "latitude": "116.418938,39.946011"}
{"name": "\u9633\u5149\u4e3d\u666f\u00a0\u00a0", "zone": "3\u5ba42\u5385\u00a0\u00a0", "area": "137\u5e73\u7c73\u00a0\u00a0", "district": "\u9a6c\u7538\u79df\u623f", "money": "16000", "see_num": "28", "floor": "\u4e2d\u697c\u5c42(\u51717\u5c42)", "time": "1990\u5e74\u5efa\u677f\u697c", "orientation": "\u5357 \u5317", "city": "\u897f\u57ce", "latitude": "116.392695,39.969608"}
{"name": "\u8d22\u5bcc\u4e1c\u65b9\u00a0\u00a0", "zone": "2\u5ba41\u5385\u00a0\u00a0", "area": "72\u5e73\u7c73\u00a0\u00a0", "district": "\u5317\u5173\u79df\u623f", "money": "3500", "see_num": "42", "floor": "\u4e2d\u697c\u5c42(\u517113\u5c42)", "time": "2007\u5e74\u5efa\u677f\u5854\u7ed3\u5408", "orientation": "\u4e1c", "city": "\u901a\u5dde", "latitude": "116.669921,39.88789"}
{"name": "\u82f9\u679c\u56ed\u5c0f\u533a\u4e00\u533a\u00a0\u00a0", "zone": "2\u5ba41\u5385\u00a0\u00a0", "area": "58\u5e73\u7c73\u00a0\u00a0", "district": "\u82f9\u679c\u56ed\u79df\u623f", "money": "4000", "see_num": "34", "floor": "\u4f4e\u697c\u5c42(\u51716\u5c42)", "time": "1997\u5e74\u5efa\u677f\u697c", "orientation": "\u5357 \u5317", "city": "\u77f3\u666f\u5c71", "latitude": "116.191421,39.932563"}
{"name": "\u4e2d\u56fd\u94c1\u5efa\u56fd\u9645\u57ce\u00a0\u00a0", "zone": "2\u5ba42\u5385\u00a0\u00a0", "area": "97\u5e73\u7c73\u00a0\u00a0", "district": "\u5317\u82d1\u79df\u623f", "money": "7500", "see_num": "22", "floor": "\u9ad8\u697c\u5c42(\u517125\u5c42)", "time": "2003\u5e74\u5efa\u5854\u697c", "orientation": "\u4e1c\u5357", "city": "\u671d\u9633", "latitude": "116.432802,40.043409"}
{"name": "\u6d77\u665f\u540d\u82d1\u00a0\u00a0", "zone": "2\u5ba42\u5385\u00a0\u00a0", "area": "119\u5e73\u7c73\u00a0\u00a0", "district": "\u5de5\u4f53\u79df\u623f", "money": "17000", "see_num": "34", "floor": "\u4e2d\u697c\u5c42(\u51716\u5c42)", "time": "1994\u5e74\u5efa\u677f\u697c", "orientation": "\u5357 \u5317", "city": "\u4e1c\u57ce", "latitude": "116.418938,39.946011"}
{"name": "\u91d1\u5730\u683c\u67976\u00a0\u00a0", "zone": "3\u5ba42\u5385\u00a0\u00a0", "area": "141\u5e73\u7c73\u00a0\u00a0", "district": "\u9a6c\u9a79\u6865\u79df\u623f", "money": "5800", "see_num": "2", "floor": "\u9ad8\u697c\u5c42(\u51719\u5c42)", "time": "2004\u5e74\u5efa\u677f\u697c", "orientation": "\u5357 \u5317", "city": "\u4ea6\u5e84\u5f00\u53d1\u533a", "latitude": "116.546899,39.755236"}
{"name": "\u5982\u610f\u91cc\u00a0\u00a0", "zone": "2\u5ba41\u5385\u00a0\u00a0", "area": "58\u5e73\u7c73\u00a0\u00a0", "district": "\u65b0\u8857\u53e3\u79df\u623f", "money": "6800", "see_num": "28", "floor": "\u4e2d\u697c\u5c42(\u51717\u5c42)", "time": "1990\u5e74\u5efa\u677f\u697c", "orientation": "\u5357 \u5317", "city": "\u897f\u57ce", "latitude": "116.392695,39.969608"}
{"name": "\u65b0\u534e\u8054\u5bb6\u56ed\u5317\u533a\u00a0\u00a0", "zone": "1\u5ba40\u5385\u00a0\u00a0", "area": "43\u5e73\u7c73\u00a0\u00a0", "district": "\u679c\u56ed\u79df\u623f", "money": "3000", "see_num": "30", "floor": "\u4e2d\u697c\u5c42(\u517113\u5c42)", "time": "2007\u5e74\u5efa\u677f\u5854\u7ed3\u5408", "orientation": "\u4e1c", "city": "\u901a\u5dde", "latitude": "116.669921,39.88789"}
{"name": "\u6c38\u4e50\u897f\u533a\u00a0\u00a0", "zone": "2\u5ba41\u5385\u00a0\u00a0", "area": "60\u5e73\u7c73\u00a0\u00a0", "district": "\u9c81\u8c37\u79df\u623f", "money": "3800", "see_num": "9", "floor": "\u4f4e\u697c\u5c42(\u51716\u5c42)", "time": "1997\u5e74\u5efa\u677f\u697c", "orientation": "\u5357 \u5317", "city": "\u77f3\u666f\u5c71", "latitude": "116.191421,39.932563"}
{"name": "\u5317\u82d1\u5bb6\u56ed\u671b\u6625\u56ed\u00a0\u00a0", "zone": "2\u5ba41\u5385\u00a0\u00a0", "area": "103\u5e73\u7c73\u00a0\u00a0", "district": "\u5317\u82d1\u79df\u623f", "money": "6700", "see_num": "13", "floor": "\u9ad8\u697c\u5c42(\u517125\u5c42)", "time": "2003\u5e74\u5efa\u5854\u697c", "orientation": "\u4e1c\u5357", "city": "\u671d\u9633", "latitude": "116.432802,40.043409"}
{"name": "\u5e78\u798f\u5bb6\u56ed\u4e09\u671f\u00a0\u00a0", "zone": "2\u5ba41\u5385\u00a0\u00a0", "area": "93\u5e73\u7c73\u00a0\u00a0", "district": "\u5e7f\u6e20\u95e8\u79df\u623f", "money": "8500", "see_num": "28", "floor": "\u4e2d\u697c\u5c42(\u51716\u5c42)", "time": "1994\u5e74\u5efa\u677f\u697c", "orientation": "\u5357 \u5317", "city": "\u4e1c\u57ce", "latitude": "116.418938,39.946011"}
{"name": "\u4e0a\u6d77\u6c99\u9f99\u00a0\u00a0", "zone": "2\u5ba42\u5385\u00a0\u00a0", "area": "98\u5e73\u7c73\u00a0\u00a0", "district": "\u4ea6\u5e84\u79df\u623f", "money": "6000", "see_num": "13", "floor": "\u9ad8\u697c\u5c42(\u51719\u5c42)", "time": "2004\u5e74\u5efa\u677f\u697c", "orientation": "\u5357 \u5317", "city": "\u4ea6\u5e84\u5f00\u53d1\u533a", "latitude": "116.546899,39.755236"}
{"name": "\u5bcc\u529b\u6843\u56edC\u533a\u00a0\u00a0", "zone": "2\u5ba41\u5385\u00a0\u00a0", "area": "88\u5e73\u7c73\u00a0\u00a0", "district": "\u897f\u4e09\u65d7\u79df\u623f", "money": "5600", "see_num": "27", "floor": "\u4e2d\u697c\u5c42(\u51714\u5c42)", "time": "2001\u5e74\u5efa\u677f\u697c", "orientation": "\u5357 \u5317", "city": "\u6d77\u6dc0", "latitude": "116.386248,40.069552"}
{"name": "\u9ec4\u5bfa\u5927\u885724\u53f7\u9662\u00a0\u00a0", "zone": "2\u5ba41\u5385\u00a0\u00a0", "area": "74\u5e73\u7c73\u00a0\u00a0", "district": "\u516d\u94fa\u7095\u79df\u623f", "money": "9000", "see_num": "11", "floor": "\u4e2d\u697c\u5c42(\u51717\u5c42)", "time": "1990\u5e74\u5efa\u677f\u697c", "orientation": "\u5357 \u5317", "city": "\u897f\u57ce", "latitude": "116.392695,39.969608"}
{"name": "\u534e\u4e1a\u4e1c\u65b9\u73ab\u7470\u00a0\u00a0", "zone": "2\u5ba41\u5385\u00a0\u00a0", "area": "94\u5e73\u7c73\u00a0\u00a0", "district": "\u4e34\u6cb3\u91cc\u79df\u623f", "money": "4800", "see_num": "18", "floor": "\u4e2d\u697c\u5c42(\u517113\u5c42)", "time": "2007\u5e74\u5efa\u677f\u5854\u7ed3\u5408", "orientation": "\u4e1c", "city": "\u901a\u5dde", "latitude": "116.669921,39.88789"}
{"name": "\u8fdc\u6d0b\u5c71\u6c34\u00a0\u00a0", "zone": "3\u5ba41\u5385\u00a0\u00a0", "area": "137\u5e73\u7c73\u00a0\u00a0", "district": "\u9c81\u8c37\u79df\u623f", "money": "10500", "see_num": "31", "floor": "\u4f4e\u697c\u5c42(\u51716\u5c42)", "time": "1997\u5e74\u5efa\u677f\u697c", "orientation": "\u5357 \u5317", "city": "\u77f3\u666f\u5c71", "latitude": "116.191421,39.932563"}
{"name": "\u534e\u8d38\u57ce\u00a0\u00a0", "zone": "2\u5ba41\u5385\u00a0\u00a0", "area": "89\u5e73\u7c73\u00a0\u00a0", "district": "\u5317\u82d1\u79df\u623f", "money": "8000", "see_num": "5", "floor": "\u9ad8\u697c\u5c42(\u517125\u5c42)", "time": "2003\u5e74\u5efa\u5854\u697c", "orientation": "\u4e1c\u5357", "city": "\u671d\u9633", "latitude": "116.432802,40.043409"}
{"name": "\u70ae\u5c40\u5934\u6761\u00a0\u00a0", "zone": "2\u5ba41\u5385\u00a0\u00a0", "area": "57\u5e73\u7c73\u00a0\u00a0", "district": "\u4e1c\u76f4\u95e8\u79df\u623f", "money": "6800", "see_num": "21", "floor": "\u4e2d\u697c\u5c42(\u51716\u5c42)", "time": "1994\u5e74\u5efa\u677f\u697c", "orientation": "\u5357 \u5317", "city": "\u4e1c\u57ce", "latitude": "116.418938,39.946011"}
{"name": "\u9999\u60a6\u56db\u5b63\u00a0\u00a0", "zone": "4\u5ba42\u5385\u00a0\u00a0", "area": "126\u5e73\u7c73\u00a0\u00a0", "district": "\u9a6c\u5761\u79df\u623f", "money": "5800", "see_num": "1", "floor": "\u4e2d\u697c\u5c42(\u51716\u5c42)", "time": "1998\u5e74\u5efa\u677f\u697c", "orientation": "\u5357 \u5317", "city": "\u987a\u4e49", "latitude": "116.665923,40.186753"}
{"name": "\u4e0a\u6d77\u6c99\u9f99\u00a0\u00a0", "zone": "1\u5ba41\u5385\u00a0\u00a0", "area": "55\u5e73\u7c73\u00a0\u00a0", "district": "\u4ea6\u5e84\u79df\u623f", "money": "3500", "see_num": "13", "floor": "\u9ad8\u697c\u5c42(\u51719\u5c42)", "time": "2004\u5e74\u5efa\u677f\u697c", "orientation": "\u5357 \u5317", "city": "\u4ea6\u5e84\u5f00\u53d1\u533a", "latitude": "116.546899,39.755236"}
{"name": "\u67ab\u4e39\u4e3d\u820d\u00a0\u00a0", "zone": "3\u5ba42\u5385\u00a0\u00a0", "area": "130\u5e73\u7c73\u00a0\u00a0", "district": "\u897f\u4e09\u65d7\u79df\u623f", "money": "8500", "see_num": "12", "floor": "\u4e2d\u697c\u5c42(\u51714\u5c42)", "time": "2001\u5e74\u5efa\u677f\u697c", "orientation": "\u5357 \u5317", "city": "\u6d77\u6dc0", "latitude": "116.386248,40.069552"}
{"name": "\u94c1\u4e8c\u533a\u00a0\u00a0", "zone": "1\u5ba41\u5385\u00a0\u00a0", "area": "42\u5e73\u7c73\u00a0\u00a0", "district": "\u6708\u575b\u79df\u623f", "money": "6000", "see_num": "13", "floor": "\u4e2d\u697c\u5c42(\u51717\u5c42)", "time": "1990\u5e74\u5efa\u677f\u697c", "orientation": "\u5357 \u5317", "city": "\u897f\u57ce", "latitude": "116.392695,39.969608"}
{"name": "\u84dd\u8c03\u6c99\u9f99\u4e1c\u533a\u00a0\u00a0", "zone": "1\u5ba40\u5385\u00a0\u00a0", "area": "34\u5e73\u7c73\u00a0\u00a0", "district": "\u4e5d\u68f5\u6811(\u5bb6\u4e50\u798f)\u79df\u623f", "money": "2850", "see_num": "34", "floor": "\u4e2d\u697c\u5c42(\u517113\u5c42)", "time": "2007\u5e74\u5efa\u677f\u5854\u7ed3\u5408", "orientation": "\u4e1c", "city": "\u901a\u5dde", "latitude": "116.669921,39.88789"}
{"name": "\u8fdc\u6d0b\u5c71\u6c34\u00a0\u00a0", "zone": "1\u5ba40\u5385\u00a0\u00a0", "area": "47\u5e73\u7c73\u00a0\u00a0", "district": "\u9c81\u8c37\u79df\u623f", "money": "4600", "see_num": "64", "floor": "\u4f4e\u697c\u5c42(\u51716\u5c42)", "time": "1997\u5e74\u5efa\u677f\u697c", "orientation": "\u5357 \u5317", "city": "\u77f3\u666f\u5c71", "latitude": "116.191421,39.932563"}
{"name": "\u4e2d\u56fd\u94c1\u5efa\u56fd\u9645\u57ce\u00a0\u00a0", "zone": "3\u5ba41\u5385\u00a0\u00a0", "area": "117\u5e73\u7c73\u00a0\u00a0", "district": "\u5317\u82d1\u79df\u623f", "money": "12000", "see_num": "10", "floor": "\u9ad8\u697c\u5c42(\u517125\u5c42)", "time": "2003\u5e74\u5efa\u5854\u697c", "orientation": "\u4e1c\u5357", "city": "\u671d\u9633", "latitude": "116.432802,40.043409"}
{"name": "\u5bcc\u8d35\u56ed\u56db\u533a\u00a0\u00a0", "zone": "4\u5ba41\u5385\u00a0\u00a0", "area": "153\u5e73\u7c73\u00a0\u00a0", "district": "\u4e1c\u82b1\u5e02\u79df\u623f", "money": "22000", "see_num": "1", "floor": "\u4e2d\u697c\u5c42(\u51716\u5c42)", "time": "1994\u5e74\u5efa\u677f\u697c", "orientation": "\u5357 \u5317", "city": "\u4e1c\u57ce", "latitude": "116.418938,39.946011"}
{"name": "\u53cc\u5174\u5357\u533a\u00a0\u00a0", "zone": "2\u5ba41\u5385\u00a0\u00a0", "area": "79\u5e73\u7c73\u00a0\u00a0", "district": "\u987a\u4e49\u57ce\u79df\u623f", "money": "3500", "see_num": "20", "floor": "\u4e2d\u697c\u5c42(\u51716\u5c42)", "time": "1998\u5e74\u5efa\u677f\u697c", "orientation": "\u5357 \u5317", "city": "\u987a\u4e49", "latitude": "116.665923,40.186753"}
{"name": "\u82ad\u857e\u96e8\u60a6\u90fd\u5357\u533a\u00a0\u00a0", "zone": "3\u5ba41\u5385\u00a0\u00a0", "area": "90\u5e73\u7c73\u00a0\u00a0", "district": "\u957f\u9633\u79df\u623f", "money": "4000", "see_num": "21", "floor": "\u9ad8\u697c\u5c42(\u517121\u5c42)", "time": "2014\u5e74\u5efa\u677f\u697c", "orientation": "\u5357", "city": "\u623f\u5c71", "latitude": "116.193275,39.766293"}
{"name": "\u535a\u5ba2\u96c5\u5c45\u00a0\u00a0", "zone": "2\u5ba41\u5385\u00a0\u00a0", "area": "87\u5e73\u7c73\u00a0\u00a0", "district": "\u4ea6\u5e84\u79df\u623f", "money": "5000", "see_num": "2", "floor": "\u9ad8\u697c\u5c42(\u51719\u5c42)", "time": "2004\u5e74\u5efa\u677f\u697c", "orientation": "\u5357 \u5317", "city": "\u4ea6\u5e84\u5f00\u53d1\u533a", "latitude": "116.546899,39.755236"}
{"name": "\u5065\u7fd4\u56ed\u00a0\u00a0", "zone": "2\u5ba41\u5385\u00a0\u00a0", "area": "87\u5e73\u7c73\u00a0\u00a0", "district": "\u4e8c\u91cc\u5e84\u79df\u623f", "money": "7800", "see_num": "17", "floor": "\u4e2d\u697c\u5c42(\u51714\u5c42)", "time": "2001\u5e74\u5efa\u677f\u697c", "orientation": "\u5357 \u5317", "city": "\u6d77\u6dc0", "latitude": "116.386248,40.069552"}
{"name": "\u6708\u575b\u5317\u8857\u00a0\u00a0", "zone": "2\u5ba41\u5385\u00a0\u00a0", "area": "61\u5e73\u7c73\u00a0\u00a0", "district": "\u6708\u575b\u79df\u623f", "money": "7800", "see_num": "14", "floor": "\u4e2d\u697c\u5c42(\u51717\u5c42)", "time": "1990\u5e74\u5efa\u677f\u697c", "orientation": "\u5357 \u5317", "city": "\u897f\u57ce", "latitude": "116.392695,39.969608"}
{"name": "\u73e0\u6c5f\u62c9\u7ef4\u5c0f\u9547\u00a0\u00a0", "zone": "2\u5ba42\u5385\u00a0\u00a0", "area": "94\u5e73\u7c73\u00a0\u00a0", "district": "\u6f5e\u82d1\u79df\u623f", "money": "3600", "see_num": "44", "floor": "\u4e2d\u697c\u5c42(\u517113\u5c42)", "time": "2007\u5e74\u5efa\u677f\u5854\u7ed3\u5408", "orientation": "\u4e1c", "city": "\u901a\u5dde"}
{"name": "\u82f9\u679c\u56ed\u5c0f\u533a\u4e8c\u533a\u00a0\u00a0", "zone": "2\u5ba41\u5385\u00a0\u00a0", "area": "81\u5e73\u7c73\u00a0\u00a0", "district": "\u82f9\u679c\u56ed\u79df\u623f", "money": "4300", "see_num": "31", "floor": "\u4f4e\u697c\u5c42(\u51716\u5c42)", "time": "1997\u5e74\u5efa\u677f\u697c", "orientation": "\u5357 \u5317", "city": "\u77f3\u666f\u5c71", "latitude": "116.191421,39.932563"}
{"name": "\u5317\u82d1\u5bb6\u56ed\u671b\u6625\u56ed\u00a0\u00a0", "zone": "1\u5ba41\u5385\u00a0\u00a0", "area": "151\u5e73\u7c73\u00a0\u00a0", "district": "\u5317\u82d1\u79df\u623f", "money": "5200", "see_num": "23", "floor": "\u9ad8\u697c\u5c42(\u517125\u5c42)", "time": "2003\u5e74\u5efa\u5854\u697c", "orientation": "\u4e1c\u5357", "city": "\u671d\u9633", "latitude": "116.432802,40.043409"}
{"name": "\u82b1\u5e02\u67a3\u82d1\u4e00\u671f\u00a0\u00a0", "zone": "2\u5ba41\u5385\u00a0\u00a0", "area": "108\u5e73\u7c73\u00a0\u00a0", "district": "\u4e1c\u82b1\u5e02\u79df\u623f", "money": "11000", "see_num": "17", "floor": "\u4e2d\u697c\u5c42(\u51716\u5c42)", "time": "1994\u5e74\u5efa\u677f\u697c", "orientation": "\u5357 \u5317", "city": "\u4e1c\u57ce"}
{"name": "\u91d1\u6cf0\u4e3d\u6e7e\u60a6\u6816\u5c71\u00a0\u00a0", "zone": "4\u5ba41\u5385\u00a0\u00a0", "area": "9\u5e73\u7c73\u00a0\u00a0", "district": "\u5927\u5cea\u79df\u623f", "money": "1490", "see_num": "0", "floor": "\u9ad8\u697c\u5c42(\u51716\u5c42)", "time": "1998\u5e74\u5efa\u5854\u697c", "orientation": "\u897f\u5357", "city": "\u95e8\u5934\u6c9f"}
{"name": "\u9a6c\u5761\u82b1\u56ed\u4e00\u533a\u00a0\u00a0", "zone": "3\u5ba42\u5385\u00a0\u00a0", "area": "181\u5e73\u7c73\u00a0\u00a0", "district": "\u9a6c\u5761\u79df\u623f", "money": "8400", "see_num": "1", "floor": "\u4e2d\u697c\u5c42(\u51716\u5c42)", "time": "1998\u5e74\u5efa\u677f\u697c", "orientation": "\u5357 \u5317", "city": "\u987a\u4e49"}
{"name": "\u9996\u5f00\u7199\u60a6\u5c71\u6f9c\u5ead\u00a0\u00a0", "zone": "2\u5ba41\u5385\u00a0\u00a0", "area": "69\u5e73\u7c73\u00a0\u00a0", "district": "\u957f\u9633\u79df\u623f", "money": "3500", "see_num": "22", "floor": "\u9ad8\u697c\u5c42(\u517121\u5c42)", "time": "2014\u5e74\u5efa\u677f\u697c", "orientation": "\u5357", "city": "\u623f\u5c71"}
{"name": "\u56fd\u878d\u56fd\u9645\u00a0\u00a0", "zone": "1\u5ba41\u5385\u00a0\u00a0", "area": "46\u5e73\u7c73\u00a0\u00a0", "district": "\u4ea6\u5e84\u79df\u623f", "money": "3900", "see_num": "29", "floor": "\u9ad8\u697c\u5c42(\u51719\u5c42)", "time": "2004\u5e74\u5efa\u677f\u697c", "orientation": "\u5357 \u5317", "city": "\u4ea6\u5e84\u5f00\u53d1\u533a", "latitude": "116.546899,39.755236"}
{"name": "\u961c\u6210\u8def8\u53f7\u9662\u00a0\u00a0", "zone": "2\u5ba40\u5385\u00a0\u00a0", "area": "58\u5e73\u7c73\u00a0\u00a0", "district": "\u7518\u5bb6\u53e3\u79df\u623f", "money": "6800", "see_num": "17", "floor": "\u4e2d\u697c\u5c42(\u51714\u5c42)", "time": "2001\u5e74\u5efa\u677f\u697c", "orientation": "\u5357 \u5317", "city": "\u6d77\u6dc0"}
{"name": "\u4e09\u91cc\u6cb3\u4e09\u533a\u00a0\u00a0", "zone": "2\u5ba41\u5385\u00a0\u00a0", "area": "51\u5e73\u7c73\u00a0\u00a0", "district": "\u6708\u575b\u79df\u623f", "money": "7300", "see_num": "1", "floor": "\u4e2d\u697c\u5c42(\u51717\u5c42)", "time": "1990\u5e74\u5efa\u677f\u697c", "orientation": "\u5357 \u5317", "city": "\u897f\u57ce"}
{"name": "\u65f6\u5c1a\u8857\u533a\u897f\u533a\u00a0\u00a0", "zone": "2\u5ba41\u5385\u00a0\u00a0", "area": "78\u5e73\u7c73\u00a0\u00a0", "district": "\u68a8\u56ed\u79df\u623f", "money": "3700", "see_num": "69", "floor": "\u4e2d\u697c\u5c42(\u517113\u5c42)", "time": "2007\u5e74\u5efa\u677f\u5854\u7ed3\u5408", "orientation": "\u4e1c", "city": "\u901a\u5dde", "latitude": "116.669921,39.88789"}
{"name": "\u8001\u5c71\u897f\u91cc\u00a0\u00a0", "zone": "1\u5ba41\u5385\u00a0\u00a0", "area": "49\u5e73\u7c73\u00a0\u00a0", "district": "\u8001\u5c71\u79df\u623f", "money": "3700", "see_num": "85", "floor": "\u4f4e\u697c\u5c42(\u51716\u5c42)", "time": "1997\u5e74\u5efa\u677f\u697c", "orientation": "\u5357 \u5317", "city": "\u77f3\u666f\u5c71", "latitude": "116.191421,39.932563"}
{"name": "\u6da6\u6cfd\u5e84\u56ed\u00a0\u00a0", "zone": "4\u5ba41\u5385\u00a0\u00a0", "area": "299\u5e73\u7c73\u00a0\u00a0", "district": "\u5317\u82d1\u79df\u623f", "money": "33000", "see_num": "9", "floor": "\u9ad8\u697c\u5c42(\u517125\u5c42)", "time": "2003\u5e74\u5efa\u5854\u697c", "orientation": "\u4e1c\u5357", "city": "\u671d\u9633", "latitude": "116.432802,40.043409"}
{"name": "\u65b0\u666f\u5bb6\u56ed\u4e1c\u533a\u00a0\u00a0", "zone": "1\u5ba41\u5385\u00a0\u00a0", "area": "59\u5e73\u7c73\u00a0\u00a0", "district": "\u5d07\u6587\u95e8\u79df\u623f", "money": "7000", "see_num": "27", "floor": "\u4e2d\u697c\u5c42(\u51716\u5c42)", "time": "1994\u5e74\u5efa\u677f\u697c", "orientation": "\u5357 \u5317", "city": "\u4e1c\u57ce", "latitude": "116.418938,39.946011"}
{"name": "\u5411\u9633\u4e1c\u91cc\u00a0\u00a0", "zone": "2\u5ba41\u5385\u00a0\u00a0", "area": "61\u5e73\u7c73\u00a0\u00a0", "district": "\u57ce\u5b50\u79df\u623f", "money": "4200", "see_num": "0", "floor": "\u9ad8\u697c\u5c42(\u51716\u5c42)", "time": "1998\u5e74\u5efa\u5854\u697c", "orientation": "\u897f\u5357", "city": "\u95e8\u5934\u6c9f"}
{"name": "\u77f3\u56ed\u4e1c\u82d1\u00a0\u00a0", "zone": "3\u5ba41\u5385\u00a0\u00a0", "area": "134\u5e73\u7c73\u00a0\u00a0", "district": "\u987a\u4e49\u5176\u5b83\u79df\u623f", "money": "4500", "see_num": "4", "floor": "\u4e2d\u697c\u5c42(\u51716\u5c42)", "time": "1998\u5e74\u5efa\u677f\u697c", "orientation": "\u5357 \u5317", "city": "\u987a\u4e49"}
{"name": "\u9996\u5f00\u7199\u60a6\u5c71\u6f9c\u5ead\u00a0\u00a0", "zone": "2\u5ba41\u5385\u00a0\u00a0", "area": "69\u5e73\u7c73\u00a0\u00a0", "district": "\u957f\u9633\u79df\u623f", "money": "3700", "see_num": "22", "floor": "\u9ad8\u697c\u5c42(\u517121\u5c42)", "time": "2014\u5e74\u5efa\u677f\u697c", "orientation": "\u5357", "city": "\u623f\u5c71", "latitude": "116.193275,39.766293"}
{"name": "\u4eb2\u7231\u7684villa\u00a0\u00a0", "zone": "5\u5ba42\u5385\u00a0\u00a0", "area": "327\u5e73\u7c73\u00a0\u00a0", "district": "\u4ea6\u5e84\u79df\u623f", "money": "45000", "see_num": "5", "floor": "\u9ad8\u697c\u5c42(\u51719\u5c42)", "time": "2004\u5e74\u5efa\u677f\u697c", "orientation": "\u5357 \u5317", "city": "\u4ea6\u5e84\u5f00\u53d1\u533a", "latitude": "116.546899,39.755236"}
{"name": "\u9ec4\u5e73\u8def8\u53f7\u9662\u00a0\u00a0", "zone": "2\u5ba41\u5385\u00a0\u00a0", "area": "57\u5e73\u7c73\u00a0\u00a0", "district": "\u897f\u4e09\u65d7\u79df\u623f", "money": "3300", "see_num": "18", "floor": "\u4e2d\u697c\u5c42(\u51714\u5c42)", "time": "2001\u5e74\u5efa\u677f\u697c", "orientation": "\u5357 \u5317", "city": "\u6d77\u6dc0"}
{"name": "\u4e09\u91cc\u6cb3\u4e09\u533a\u00a0\u00a0", "zone": "1\u5ba41\u5385\u00a0\u00a0", "area": "50\u5e73\u7c73\u00a0\u00a0", "district": "\u6708\u575b\u79df\u623f", "money": "5500", "see_num": "32", "floor": "\u4e2d\u697c\u5c42(\u51717\u5c42)", "time": "1990\u5e74\u5efa\u677f\u697c", "orientation": "\u5357 \u5317", "city": "\u897f\u57ce", "latitude": "116.392695,39.969608"}
{"name": "\u65b0\u57ce\u9633\u5149\u00a0\u00a0", "zone": "2\u5ba41\u5385\u00a0\u00a0", "area": "95\u5e73\u7c73\u00a0\u00a0", "district": "\u68a8\u56ed\u79df\u623f", "money": "4000", "see_num": "22", "floor": "\u4e2d\u697c\u5c42(\u517113\u5c42)", "time": "2007\u5e74\u5efa\u677f\u5854\u7ed3\u5408", "orientation": "\u4e1c", "city": "\u901a\u5dde", "latitude": "116.669921,39.88789"}
{"name": "\u91d1\u9876\u8857\u4e94\u533a\u00a0\u00a0", "zone": "2\u5ba41\u5385\u00a0\u00a0", "area": "75\u5e73\u7c73\u00a0\u00a0", "district": "\u82f9\u679c\u56ed\u79df\u623f", "money": "4200", "see_num": "9", "floor": "\u4f4e\u697c\u5c42(\u51716\u5c42)", "time": "1997\u5e74\u5efa\u677f\u697c", "orientation": "\u5357 \u5317", "city": "\u77f3\u666f\u5c71", "latitude": "116.191421,39.932563"}
{"name": "\u4e2d\u56fd\u94c1\u5efa\u56fd\u9645\u57ce\u00a0\u00a0", "zone": "2\u5ba41\u5385\u00a0\u00a0", "area": "61\u5e73\u7c73\u00a0\u00a0", "district": "\u5317\u82d1\u79df\u623f", "money": "6500", "see_num": "8", "floor": "\u9ad8\u697c\u5c42(\u517125\u5c42)", "time": "2003\u5e74\u5efa\u5854\u697c", "orientation": "\u4e1c\u5357", "city": "\u671d\u9633"}
{"name": "\u897f\u8425\u623f\u00a0\u00a0", "zone": "1\u5ba41\u5385\u00a0\u00a0", "area": "57\u5e73\u7c73\u00a0\u00a0", "district": "\u5b89\u5b9a\u95e8\u79df\u623f", "money": "5500", "see_num": "78", "floor": "\u4e2d\u697c\u5c42(\u51716\u5c42)", "time": "1994\u5e74\u5efa\u677f\u697c", "orientation": "\u5357 \u5317", "city": "\u4e1c\u57ce"}
{"name": "\u7693\u6708\u56ed\u00a0\u00a0", "zone": "1\u5ba41\u5385\u00a0\u00a0", "area": "40\u5e73\u7c73\u00a0\u00a0", "district": "\u6ee8\u6cb3\u897f\u533a\u79df\u623f", "money": "2990", "see_num": "0", "floor": "\u9ad8\u697c\u5c42(\u51716\u5c42)", "time": "1998\u5e74\u5efa\u5854\u697c", "orientation": "\u897f\u5357", "city": "\u95e8\u5934\u6c9f"}
{"name": "\u897f\u8f9b\u5317\u533a\u00a0\u00a0", "zone": "2\u5ba41\u5385\u00a0\u00a0", "area": "52\u5e73\u7c73\u00a0\u00a0", "district": "\u987a\u4e49\u57ce\u79df\u623f", "money": "2600", "see_num": "12", "floor": "\u4e2d\u697c\u5c42(\u51716\u5c42)", "time": "1998\u5e74\u5efa\u677f\u697c", "orientation": "\u5357 \u5317", "city": "\u987a\u4e49"}
{"name": "\u91d1\u5730\u6717\u60a6\u6717\u56ed\u00a0\u00a0", "zone": "3\u5ba42\u5385\u00a0\u00a0", "area": "97\u5e73\u7c73\u00a0\u00a0", "district": "\u826f\u4e61\u79df\u623f", "money": "3700", "see_num": "41", "floor": "\u9ad8\u697c\u5c42(\u517121\u5c42)", "time": "2014\u5e74\u5efa\u677f\u697c", "orientation": "\u5357", "city": "\u623f\u5c71", "latitude": "116.193275,39.766293"}
{"name": "\u91d1\u5730\u683c\u6797\u5c0f\u9547\u00a0\u00a0", "zone": "2\u5ba41\u5385\u00a0\u00a0", "area": "109\u5e73\u7c73\u00a0\u00a0", "district": "\u4ea6\u5e84\u79df\u623f", "money": "7300", "see_num": "29", "floor": "\u9ad8\u697c\u5c42(\u51719\u5c42)", "time": "2004\u5e74\u5efa\u677f\u697c", "orientation": "\u5357 \u5317", "city": "\u4ea6\u5e84\u5f00\u53d1\u533a", "latitude": "116.546899,39.755236"}
{"name": "\u56fd\u5174\u5bb6\u56ed\u00a0\u00a0", "zone": "3\u5ba42\u5385\u00a0\u00a0", "area": "148\u5e73\u7c73\u00a0\u00a0", "district": "\u7518\u5bb6\u53e3\u79df\u623f", "money": "19000", "see_num": "26", "floor": "\u4e2d\u697c\u5c42(\u51714\u5c42)", "time": "2001\u5e74\u5efa\u677f\u697c", "orientation": "\u5357 \u5317", "city": "\u6d77\u6dc0", "latitude": "116.386248,40.069552"}
{"name": "\u4eac\u757f\u9053\u00a0\u00a0", "zone": "2\u5ba41\u5385\u00a0\u00a0", "area": "68\u5e73\u7c73\u00a0\u00a0", "district": "\u91d1\u878d\u8857\u79df\u623f", "money": "10000", "see_num": "29", "floor": "\u4e2d\u697c\u5c42(\u51717\u5c42)", "time": "1990\u5e74\u5efa\u677f\u697c", "orientation": "\u5357 \u5317", "city": "\u897f\u57ce"}
{"name": "\u5408\u751f\u6ee8\u6c5f\u5e1d\u666f\u4e00\u671f\u00a0\u00a0", "zone": "3\u5ba41\u5385\u00a0\u00a0", "area": "112\u5e73\u7c73\u00a0\u00a0", "district": "\u7389\u6865\u79df\u623f", "money": "5000", "see_num": "27", "floor": "\u4e2d\u697c\u5c42(\u517113\u5c42)", "time": "2007\u5e74\u5efa\u677f\u5854\u7ed3\u5408", "orientation": "\u4e1c", "city": "\u901a\u5dde"}
{"name": "\u53e4\u57ce\u5317\u8def\u00a0\u00a0", "zone": "2\u5ba41\u5385\u00a0\u00a0", "area": "56\u5e73\u7c73\u00a0\u00a0", "district": "\u53e4\u57ce\u79df\u623f", "money": "4000", "see_num": "9", "floor": "\u4f4e\u697c\u5c42(\u51716\u5c42)", "time": "1997\u5e74\u5efa\u677f\u697c", "orientation": "\u5357 \u5317", "city": "\u77f3\u666f\u5c71"}
{"name": "\u534e\u8d38\u57ce\u00a0\u00a0", "zone": "3\u5ba41\u5385\u00a0\u00a0", "area": "135\u5e73\u7c73\u00a0\u00a0", "district": "\u5317\u82d1\u79df\u623f", "money": "9500", "see_num": "15", "floor": "\u9ad8\u697c\u5c42(\u517125\u5c42)", "time": "2003\u5e74\u5efa\u5854\u697c", "orientation": "\u4e1c\u5357", "city": "\u671d\u9633", "latitude": "116.432802,40.043409"}
{"name": "\u674e\u6751\u4e1c\u91cc\u00a0\u00a0", "zone": "2\u5ba41\u5385\u00a0\u00a0", "area": "57\u5e73\u7c73\u00a0\u00a0", "district": "\u6c38\u5b9a\u95e8\u79df\u623f", "money": "4800", "see_num": "37", "floor": "\u4e2d\u697c\u5c42(\u51716\u5c42)", "time": "1994\u5e74\u5efa\u677f\u697c", "orientation": "\u5357 \u5317", "city": "\u4e1c\u57ce", "latitude": "116.418938,39.946011"}
{"name": "\u9601\u5916\u5c71\u6c34\u00a0\u00a0", "zone": "1\u5ba40\u5385\u00a0\u00a0", "area": "48\u5e73\u7c73\u00a0\u00a0", "district": "\u57ce\u5b50\u79df\u623f", "money": "2500", "see_num": "0", "floor": "\u9ad8\u697c\u5c42(\u51716\u5c42)", "time": "1998\u5e74\u5efa\u5854\u697c", "orientation": "\u897f\u5357", "city": "\u95e8\u5934\u6c9f"}
{"name": "\u84dd\u661f\u82b1\u56ed\u00a0\u00a0", "zone": "2\u5ba42\u5385\u00a0\u00a0", "area": "137\u5e73\u7c73\u00a0\u00a0", "district": "\u540e\u6c99\u5cea\u79df\u623f", "money": "5500", "see_num": "4", "floor": "\u4e2d\u697c\u5c42(\u51716\u5c42)", "time": "1998\u5e74\u5efa\u677f\u697c", "orientation": "\u5357 \u5317", "city": "\u987a\u4e49"}
{"name": "\u82ad\u857e\u96e8\u60a6\u90fd\u5357\u533a\u00a0\u00a0", "zone": "3\u5ba41\u5385\u00a0\u00a0", "area": "89\u5e73\u7c73\u00a0\u00a0", "district": "\u957f\u9633\u79df\u623f", "money": "4000", "see_num": "30", "floor": "\u9ad8\u697c\u5c42(\u517121\u5c42)", "time": "2014\u5e74\u5efa\u677f\u697c", "orientation": "\u5357", "city": "\u623f\u5c71"}
{"name": "\u67ab\u4e39\u58f9\u865f\u00a0\u00a0", "zone": "3\u5ba41\u5385\u00a0\u00a0", "area": "121\u5e73\u7c73\u00a0\u00a0", "district": "\u4ea6\u5e84\u5f00\u53d1\u533a\u5176\u5b83\u79df\u623f", "money": "7600", "see_num": "10", "floor": "\u9ad8\u697c\u5c42(\u51719\u5c42)", "time": "2004\u5e74\u5efa\u677f\u697c", "orientation": "\u5357 \u5317", "city": "\u4ea6\u5e84\u5f00\u53d1\u533a", "latitude": "116.546899,39.755236"}
{"name": "\u90fd\u5e02\u7f51\u666f\u00a0\u00a0", "zone": "2\u5ba41\u5385\u00a0\u00a0", "area": "95\u5e73\u7c73\u00a0\u00a0", "district": "\u53cc\u6986\u6811\u79df\u623f", "money": "9000", "see_num": "18", "floor": "\u4e2d\u697c\u5c42(\u51714\u5c42)", "time": "2001\u5e74\u5efa\u677f\u697c", "orientation": "\u5357 \u5317", "city": "\u6d77\u6dc0"}
{"name": "\u4e09\u91cc\u6cb3\u5317\u88575\u53f7\u9662\u00a0\u00a0", "zone": "2\u5ba41\u5385\u00a0\u00a0", "area": "56\u5e73\u7c73\u00a0\u00a0", "district": "\u6708\u575b\u79df\u623f", "money": "7600", "see_num": "30", "floor": "\u4e2d\u697c\u5c42(\u51717\u5c42)", "time": "1990\u5e74\u5efa\u677f\u697c", "orientation": "\u5357 \u5317", "city": "\u897f\u57ce", "latitude": "116.392695,39.969608"}
{"name": "\u5927\u65b9\u5c45\u00a0\u00a0", "zone": "2\u5ba41\u5385\u00a0\u00a0", "area": "91\u5e73\u7c73\u00a0\u00a0", "district": "\u4e5d\u68f5\u6811(\u5bb6\u4e50\u798f)\u79df\u623f", "money": "3800", "see_num": "27", "floor": "\u4e2d\u697c\u5c42(\u517113\u5c42)", "time": "2007\u5e74\u5efa\u677f\u5854\u7ed3\u5408", "orientation": "\u4e1c", "city": "\u901a\u5dde"}
{"name": "\u5fa1\u666f\u5c71\u00a0\u00a0", "zone": "2\u5ba42\u5385\u00a0\u00a0", "area": "117\u5e73\u7c73\u00a0\u00a0", "district": "\u6768\u5e84\u79df\u623f", "money": "6300", "see_num": "13", "floor": "\u4f4e\u697c\u5c42(\u51716\u5c42)", "time": "1997\u5e74\u5efa\u677f\u697c", "orientation": "\u5357 \u5317", "city": "\u77f3\u666f\u5c71", "latitude": "116.191421,39.932563"}
{"name": "\u5317\u82d1\u5bb6\u56ed\u8309\u85dc\u56ed\u00a0\u00a0", "zone": "3\u5ba41\u5385\u00a0\u00a0", "area": "73\u5e73\u7c73\u00a0\u00a0", "district": "\u5317\u82d1\u79df\u623f", "money": "6500", "see_num": "15", "floor": "\u9ad8\u697c\u5c42(\u517125\u5c42)", "time": "2003\u5e74\u5efa\u5854\u697c", "orientation": "\u4e1c\u5357", "city": "\u671d\u9633"}
{"name": "\u5b89\u4e50\u6797\u4e8c\u6761\u00a0\u00a0", "zone": "2\u5ba41\u5385\u00a0\u00a0", "area": "57\u5e73\u7c73\u00a0\u00a0", "district": "\u6c38\u5b9a\u95e8\u79df\u623f", "money": "4800", "see_num": "8", "floor": "\u4e2d\u697c\u5c42(\u51716\u5c42)", "time": "1994\u5e74\u5efa\u677f\u697c", "orientation": "\u5357 \u5317", "city": "\u4e1c\u57ce", "latitude": "116.418938,39.946011"}
{"name": "\u4e3d\u666f\u957f\u5b89\u00a0\u00a0", "zone": "2\u5ba41\u5385\u00a0\u00a0", "area": "91\u5e73\u7c73\u00a0\u00a0", "district": "\u51af\u6751\u79df\u623f", "money": "4800", "see_num": "0", "floor": "\u9ad8\u697c\u5c42(\u51716\u5c42)", "time": "1998\u5e74\u5efa\u5854\u697c", "orientation": "\u897f\u5357", "city": "\u95e8\u5934\u6c9f"}
{"name": "\u4e07\u79d1\u56db\u5b63\u82b1\u57ce\u00a0\u00a0", "zone": "2\u5ba41\u5385\u00a0\u00a0", "area": "92\u5e73\u7c73\u00a0\u00a0", "district": "\u987a\u4e49\u57ce\u79df\u623f", "money": "5500", "see_num": "2", "floor": "\u4e2d\u697c\u5c42(\u51716\u5c42)", "time": "1998\u5e74\u5efa\u677f\u697c", "orientation": "\u5357 \u5317", "city": "\u987a\u4e49", "latitude": "116.665923,40.186753"}
{"name": "\u52a0\u5dde\u6c34\u90e1\u4e09\u671f\u00a0\u00a0", "zone": "3\u5ba42\u5385\u00a0\u00a0", "area": "146\u5e73\u7c73\u00a0\u00a0", "district": "\u957f\u9633\u79df\u623f", "money": "4100", "see_num": "3", "floor": "\u9ad8\u697c\u5c42(\u517121\u5c42)", "time": "2014\u5e74\u5efa\u677f\u697c", "orientation": "\u5357", "city": "\u623f\u5c71"}
{"name": "\u90c1\u91d1\u9999\u820d\u00a0\u00a0", "zone": "2\u5ba42\u5385\u00a0\u00a0", "area": "94\u5e73\u7c73\u00a0\u00a0", "district": "\u4ea6\u5e84\u79df\u623f", "money": "6200", "see_num": "38", "floor": "\u9ad8\u697c\u5c42(\u51719\u5c42)", "time": "2004\u5e74\u5efa\u677f\u697c", "orientation": "\u5357 \u5317", "city": "\u4ea6\u5e84\u5f00\u53d1\u533a"}
{"name": "\u4e0a\u6797\u6eaa\u00a0\u00a0", "zone": "2\u5ba41\u5385\u00a0\u00a0", "area": "92\u5e73\u7c73\u00a0\u00a0", "district": "\u5b89\u5b81\u5e84\u79df\u623f", "money": "7600", "see_num": "24", "floor": "\u4e2d\u697c\u5c42(\u51714\u5c42)", "time": "2001\u5e74\u5efa\u677f\u697c", "orientation": "\u5357 \u5317", "city": "\u6d77\u6dc0", "latitude": "116.386248,40.069552"}
{"name": "\u7ea2\u5c71\u4e16\u5bb6\u00a0\u00a0", "zone": "2\u5ba41\u5385\u00a0\u00a0", "area": "80\u5e73\u7c73\u00a0\u00a0", "district": "\u5e7f\u5b89\u95e8\u79df\u623f", "money": "9500", "see_num": "35", "floor": "\u4e2d\u697c\u5c42(\u51717\u5c42)", "time": "1990\u5e74\u5efa\u677f\u697c", "orientation": "\u5357 \u5317", "city": "\u897f\u57ce", "latitude": "116.392695,39.969608"}
{"name": "\u5929\u8d50\u826f\u56ed\u4e8c\u671f\u00a0\u00a0", "zone": "2\u5ba41\u5385\u00a0\u00a0", "area": "107\u5e73\u7c73\u00a0\u00a0", "district": "\u5317\u5173\u79df\u623f", "money": "5300", "see_num": "37", "floor": "\u4e2d\u697c\u5c42(\u517113\u5c42)", "time": "2007\u5e74\u5efa\u677f\u5854\u7ed3\u5408", "orientation": "\u4e1c", "city": "\u901a\u5dde"}
{"name": "\u878d\u666f\u57ce\u00a0\u00a0", "zone": "2\u5ba41\u5385\u00a0\u00a0", "area": "91\u5e73\u7c73\u00a0\u00a0", "district": "\u516b\u89d2\u79df\u623f", "money": "6200", "see_num": "1", "floor": "\u4f4e\u697c\u5c42(\u51716\u5c42)", "time": "1997\u5e74\u5efa\u677f\u697c", "orientation": "\u5357 \u5317", "city": "\u77f3\u666f\u5c71", "latitude": "116.191421,39.932563"}
{"name": "\u73e0\u6c5f\u7eff\u6d32\u00a0\u00a0", "zone": "2\u5ba41\u5385\u00a0\u00a0", "area": "117\u5e73\u7c73\u00a0\u00a0", "district": "\u53cc\u6865\u79df\u623f", "money": "7300", "see_num": "13", "floor": "\u9ad8\u697c\u5c42(\u517125\u5c42)", "time": "2003\u5e74\u5efa\u5854\u697c", "orientation": "\u4e1c\u5357", "city": "\u671d\u9633"}
{"name": "\u548c\u5e73\u91cc\u4e09\u533a\u00a0\u00a0", "zone": "1\u5ba41\u5385\u00a0\u00a0", "area": "40\u5e73\u7c73\u00a0\u00a0", "district": "\u548c\u5e73\u91cc\u79df\u623f", "money": "5000", "see_num": "11", "floor": "\u4e2d\u697c\u5c42(\u51716\u5c42)", "time": "1994\u5e74\u5efa\u677f\u697c", "orientation": "\u5357 \u5317", "city": "\u4e1c\u57ce"}
{"name": "\u4e3d\u666f\u957f\u5b89\u00a0\u00a0", "zone": "2\u5ba41\u5385\u00a0\u00a0", "area": "88\u5e73\u7c73\u00a0\u00a0", "district": "\u51af\u6751\u79df\u623f", "money": "4300", "see_num": "0", "floor": "\u9ad8\u697c\u5c42(\u51716\u5c42)", "time": "1998\u5e74\u5efa\u5854\u697c", "orientation": "\u897f\u5357", "city": "\u95e8\u5934\u6c9f"}
{"name": "\u9f99\u5e9c\u82b1\u56ed\u00a0\u00a0", "zone": "3\u5ba41\u5385\u00a0\u00a0", "area": "96\u5e73\u7c73\u00a0\u00a0", "district": "\u987a\u4e49\u57ce\u79df\u623f", "money": "3400", "see_num": "1", "floor": "\u4e2d\u697c\u5c42(\u51716\u5c42)", "time": "1998\u5e74\u5efa\u677f\u697c", "orientation": "\u5357 \u5317", "city": "\u987a\u4e49"}
{"name": "\u91d1\u5730\u6717\u60a6\u60a6\u56ed\u00a0\u00a0", "zone": "3\u5ba41\u5385\u00a0\u00a0", "area": "97\u5e73\u7c73\u00a0\u00a0", "district": "\u826f\u4e61\u79df\u623f", "money": "3400", "see_num": "2", "floor": "\u9ad8\u697c\u5c42(\u517121\u5c42)", "time": "2014\u5e74\u5efa\u677f\u697c", "orientation": "\u5357", "city": "\u623f\u5c71"}
{"name": "\u701b\u666f\u56ed\u00a0\u00a0", "zone": "2\u5ba41\u5385\u00a0\u00a0", "area": "92\u5e73\u7c73\u00a0\u00a0", "district": "\u4ea6\u5e84\u79df\u623f", "money": "5000", "see_num": "8", "floor": "\u9ad8\u697c\u5c42(\u51719\u5c42)", "time": "2004\u5e74\u5efa\u677f\u697c", "orientation": "\u5357 \u5317", "city": "\u4ea6\u5e84\u5f00\u53d1\u533a", "latitude": "116.546899,39.755236"}
{"name": "\u82b1\u56ed\u516c\u5bd3\u00a0\u00a0", "zone": "1\u5ba41\u5385\u00a0\u00a0", "area": "54\u5e73\u7c73\u00a0\u00a0", "district": "\u7261\u4e39\u56ed\u79df\u623f", "money": "6300", "see_num": "25", "floor": "\u4e2d\u697c\u5c42(\u51714\u5c42)", "time": "2001\u5e74\u5efa\u677f\u697c", "orientation": "\u5357 \u5317", "city": "\u6d77\u6dc0"}
{"name": "\u9a6c\u7538\u5357\u6751\u00a0\u00a0", "zone": "1\u5ba41\u5385\u00a0\u00a0", "area": "47\u5e73\u7c73\u00a0\u00a0", "district": "\u9a6c\u7538\u79df\u623f", "money": "5100", "see_num": "57", "floor": "\u4e2d\u697c\u5c42(\u51717\u5c42)", "time": "1990\u5e74\u5efa\u677f\u697c", "orientation": "\u5357 \u5317", "city": "\u897f\u57ce"}
{"name": "\u5bcc\u529b\u91d1\u79a7\u82b1\u56ed\u00a0\u00a0", "zone": "2\u5ba41\u5385\u00a0\u00a0", "area": "87\u5e73\u7c73\u00a0\u00a0", "district": "\u65b0\u534e\u5927\u8857\u79df\u623f", "money": "5600", "see_num": "36", "floor": "\u4e2d\u697c\u5c42(\u517113\u5c42)", "time": "2007\u5e74\u5efa\u677f\u5854\u7ed3\u5408", "orientation": "\u4e1c", "city": "\u901a\u5dde"}
{"name": "\u4e94\u82b3\u56ed\u00a0\u00a0", "zone": "2\u5ba41\u5385\u00a0\u00a0", "area": "69\u5e73\u7c73\u00a0\u00a0", "district": "\u9c81\u8c37\u79df\u623f", "money": "4600", "see_num": "1", "floor": "\u4f4e\u697c\u5c42(\u51716\u5c42)", "time": "1997\u5e74\u5efa\u677f\u697c", "orientation": "\u5357 \u5317", "city": "\u77f3\u666f\u5c71"}
{"name": "\u65b0\u8857\u574a\u00a0\u00a0", "zone": "2\u5ba41\u5385\u00a0\u00a0", "area": "85\u5e73\u7c73\u00a0\u00a0", "district": "\u5317\u82d1\u79df\u623f", "money": "6300", "see_num": "12", "floor": "\u9ad8\u697c\u5c42(\u517125\u5c42)", "time": "2003\u5e74\u5efa\u5854\u697c", "orientation": "\u4e1c\u5357", "city": "\u671d\u9633"}
{"name": "\u79be\u98ce\u4ed5\u5bb6\u00a0\u00a0", "zone": "3\u5ba41\u5385\u00a0\u00a0", "area": "89\u5e73\u7c73\u00a0\u00a0", "district": "\u91d1\u5b9d\u8857\u79df\u623f", "money": "21000", "see_num": "13", "floor": "\u4e2d\u697c\u5c42(\u51716\u5c42)", "time": "1994\u5e74\u5efa\u677f\u697c", "orientation": "\u5357 \u5317", "city": "\u4e1c\u57ce"}
{"name": "\u501a\u5c71\u5609\u56ed\u00a0\u00a0", "zone": "2\u5ba42\u5385\u00a0\u00a0", "area": "117\u5e73\u7c73\u00a0\u00a0", "district": "\u6ee8\u6cb3\u897f\u533a\u79df\u623f", "money": "4500", "see_num": "0", "floor": "\u9ad8\u697c\u5c42(\u51716\u5c42)", "time": "1998\u5e74\u5efa\u5854\u697c", "orientation": "\u897f\u5357", "city": "\u95e8\u5934\u6c9f"}
{"name": "\u4e2d\u5efa\u56fd\u9645\u57ce\u00a0\u00a0", "zone": "3\u5ba41\u5385\u00a0\u00a0", "area": "94\u5e73\u7c73\u00a0\u00a0", "district": "\u987a\u4e49\u5176\u5b83\u79df\u623f", "money": "4400", "see_num": "2", "floor": "\u4e2d\u697c\u5c42(\u51716\u5c42)", "time": "1998\u5e74\u5efa\u677f\u697c", "orientation": "\u5357 \u5317", "city": "\u987a\u4e49"}
{"name": "\u82ad\u857e\u96e8\u60a6\u90fd\u5317\u533a\u00a0\u00a0", "zone": "3\u5ba41\u5385\u00a0\u00a0", "area": "88\u5e73\u7c73\u00a0\u00a0", "district": "\u957f\u9633\u79df\u623f", "money": "4300", "see_num": "6", "floor": "\u9ad8\u697c\u5c42(\u517121\u5c42)", "time": "2014\u5e74\u5efa\u677f\u697c", "orientation": "\u5357", "city": "\u623f\u5c71"}
{"name": "\u8d35\u56ed\u5317\u91cc\u620a\u533a\u00a0\u00a0", "zone": "2\u5ba41\u5385\u00a0\u00a0", "area": "59\u5e73\u7c73\u00a0\u00a0", "district": "\u4ea6\u5e84\u79df\u623f", "money": "3400", "see_num": "29", "floor": "\u9ad8\u697c\u5c42(\u51719\u5c42)", "time": "2004\u5e74\u5efa\u677f\u697c", "orientation": "\u5357 \u5317", "city": "\u4ea6\u5e84\u5f00\u53d1\u533a"}
{"name": "\u590d\u5174\u8def\u4e596\u53f7\u9662\u00a0\u00a0", "zone": "2\u5ba41\u5385\u00a0\u00a0", "area": "59\u5e73\u7c73\u00a0\u00a0", "district": "\u519b\u535a\u79df\u623f", "money": "6500", "see_num": "26", "floor": "\u4e2d\u697c\u5c42(\u51714\u5c42)", "time": "2001\u5e74\u5efa\u677f\u697c", "orientation": "\u5357 \u5317", "city": "\u6d77\u6dc0"}
{"name": "\u65b0\u5916\u5927\u8857\u753212\u53f7\u9662\u00a0\u00a0", "zone": "2\u5ba41\u5385\u00a0\u00a0", "area": "50\u5e73\u7c73\u00a0\u00a0", "district": "\u9a6c\u7538\u79df\u623f", "money": "6500", "see_num": "29", "floor": "\u4e2d\u697c\u5c42(\u51717\u5c42)", "time": "1990\u5e74\u5efa\u677f\u697c", "orientation": "\u5357 \u5317", "city": "\u897f\u57ce", "latitude": "116.392695,39.969608"}
{"name": "\u957f\u57ce\u56fd\u9645\u00a0\u00a0", "zone": "1\u5ba40\u5385\u00a0\u00a0", "area": "53\u5e73\u7c73\u00a0\u00a0", "district": "\u901a\u5dde\u5317\u82d1\u79df\u623f", "money": "3200", "see_num": "23", "floor": "\u4e2d\u697c\u5c42(\u517113\u5c42)", "time": "2007\u5e74\u5efa\u677f\u5854\u7ed3\u5408", "orientation": "\u4e1c", "city": "\u901a\u5dde"}
{"name": "\u91cd\u5174\u56ed\u00a0\u00a0", "zone": "2\u5ba41\u5385\u00a0\u00a0", "area": "84\u5e73\u7c73\u00a0\u00a0", "district": "\u9c81\u8c37\u79df\u623f", "money": "5500", "see_num": "31", "floor": "\u4f4e\u697c\u5c42(\u51716\u5c42)", "time": "1997\u5e74\u5efa\u677f\u697c", "orientation": "\u5357 \u5317", "city": "\u77f3\u666f\u5c71", "latitude": "116.191421,39.932563"}
{"name": "\u4e2d\u56fd\u94c1\u5efa\u56fd\u9645\u57ce\u00a0\u00a0", "zone": "5\u5ba42\u5385\u00a0\u00a0", "area": "172\u5e73\u7c73\u00a0\u00a0", "district": "\u5317\u82d1\u79df\u623f", "money": "16000", "see_num": "4", "floor": "\u9ad8\u697c\u5c42(\u517125\u5c42)", "time": "2003\u5e74\u5efa\u5854\u697c", "orientation": "\u4e1c\u5357", "city": "\u671d\u9633"}
{"name": "\u80e1\u5bb6\u56ed26\u53f7\u9662\u00a0\u00a0", "zone": "3\u5ba41\u5385\u00a0\u00a0", "area": "129\u5e73\u7c73\u00a0\u00a0", "district": "\u4e1c\u76f4\u95e8\u79df\u623f", "money": "13000", "see_num": "15", "floor": "\u4e2d\u697c\u5c42(\u51716\u5c42)", "time": "1994\u5e74\u5efa\u677f\u697c", "orientation": "\u5357 \u5317", "city": "\u4e1c\u57ce", "latitude": "116.418938,39.946011"}
{"name": "\u9ad8\u5bb6\u56ed\u4e8c\u8def2\u53f7\u9662\u00a0\u00a0", "zone": "3\u5ba41\u5385\u00a0\u00a0", "area": "8\u5e73\u7c73\u00a0\u00a0", "district": "\u5927\u5cea\u79df\u623f", "money": "1490", "see_num": "0", "floor": "\u9ad8\u697c\u5c42(\u51716\u5c42)", "time": "1998\u5e74\u5efa\u5854\u697c", "orientation": "\u897f\u5357", "city": "\u95e8\u5934\u6c9f"}
{"name": "\u4e2d\u94c1\u82b1\u6eaa\u6e21\u00a0\u00a0", "zone": "2\u5ba42\u5385\u00a0\u00a0", "area": "86\u5e73\u7c73\u00a0\u00a0", "district": "\u9a6c\u5761\u79df\u623f", "money": "4000", "see_num": "3", "floor": "\u4e2d\u697c\u5c42(\u51716\u5c42)", "time": "1998\u5e74\u5efa\u677f\u697c", "orientation": "\u5357 \u5317", "city": "\u987a\u4e49"}
{"name": "\u660a\u5929\u5609\u56ed\u00a0\u00a0", "zone": "5\u5ba42\u5385\u00a0\u00a0", "area": "101\u5e73\u7c73\u00a0\u00a0", "district": "\u826f\u4e61\u79df\u623f", "money": "3000", "see_num": "0", "floor": "\u9ad8\u697c\u5c42(\u517121\u5c42)", "time": "2014\u5e74\u5efa\u677f\u697c", "orientation": "\u5357", "city": "\u623f\u5c71"}
{"name": "\u661f\u5c9b\u5047\u65e5\u00a0\u00a0", "zone": "2\u5ba42\u5385\u00a0\u00a0", "area": "110\u5e73\u7c73\u00a0\u00a0", "district": "\u4ea6\u5e84\u79df\u623f", "money": "7000", "see_num": "14", "floor": "\u9ad8\u697c\u5c42(\u51719\u5c42)", "time": "2004\u5e74\u5efa\u677f\u697c", "orientation": "\u5357 \u5317", "city": "\u4ea6\u5e84\u5f00\u53d1\u533a", "latitude": "116.546899,39.755236"}
{"name": "\u77e5\u6625\u91cc\u00a0\u00a0", "zone": "1\u5ba41\u5385\u00a0\u00a0", "area": "49\u5e73\u7c73\u00a0\u00a0", "district": "\u53cc\u6986\u6811\u79df\u623f", "money": "5800", "see_num": "43", "floor": "\u4e2d\u697c\u5c42(\u51714\u5c42)", "time": "2001\u5e74\u5efa\u677f\u697c", "orientation": "\u5357 \u5317", "city": "\u6d77\u6dc0"}
{"name": "\u6717\u7434\u56ed\u00a0\u00a0", "zone": "1\u5ba41\u5385\u00a0\u00a0", "area": "57\u5e73\u7c73\u00a0\u00a0", "district": "\u5e7f\u5b89\u95e8\u79df\u623f", "money": "6200", "see_num": "25", "floor": "\u4e2d\u697c\u5c42(\u51717\u5c42)", "time": "1990\u5e74\u5efa\u677f\u697c", "orientation": "\u5357 \u5317", "city": "\u897f\u57ce"}
{"name": "BOBO\u81ea\u7531\u57ce\u00a0\u00a0", "zone": "3\u5ba42\u5385\u00a0\u00a0", "area": "123\u5e73\u7c73\u00a0\u00a0", "district": "\u6b66\u5937\u82b1\u56ed\u79df\u623f", "money": "5800", "see_num": "1", "floor": "\u4e2d\u697c\u5c42(\u517113\u5c42)", "time": "2007\u5e74\u5efa\u677f\u5854\u7ed3\u5408", "orientation": "\u4e1c", "city": "\u901a\u5dde"}
{"name": "\u8001\u5c71\u897f\u91cc\u00a0\u00a0", "zone": "2\u5ba41\u5385\u00a0\u00a0", "area": "58\u5e73\u7c73\u00a0\u00a0", "district": "\u8001\u5c71\u79df\u623f", "money": "5300", "see_num": "44", "floor": "\u4f4e\u697c\u5c42(\u51716\u5c42)", "time": "1997\u5e74\u5efa\u677f\u697c", "orientation": "\u5357 \u5317", "city": "\u77f3\u666f\u5c71"}
{"name": "\u5929\u6da6\u798f\u7199\u5927\u9053\u00a0\u00a0", "zone": "2\u5ba41\u5385\u00a0\u00a0", "area": "73\u5e73\u7c73\u00a0\u00a0", "district": "\u5317\u82d1\u79df\u623f", "money": "7000", "see_num": "2", "floor": "\u9ad8\u697c\u5c42(\u517125\u5c42)", "time": "2003\u5e74\u5efa\u5854\u697c", "orientation": "\u4e1c\u5357", "city": "\u671d\u9633"}
{"name": "\u5929\u5229\u56ed\u00a0\u00a0", "zone": "2\u5ba41\u5385\u00a0\u00a0", "area": "92\u5e73\u7c73\u00a0\u00a0", "district": "\u5e7f\u6e20\u95e8\u79df\u623f", "money": "9000", "see_num": "5", "floor": "\u4e2d\u697c\u5c42(\u51716\u5c42)", "time": "1994\u5e74\u5efa\u677f\u697c", "orientation": "\u5357 \u5317", "city": "\u4e1c\u57ce"}
{"name": "\u91d1\u6cf0\u4e3d\u6e7e\u60a6\u6816\u5c71\u00a0\u00a0", "zone": "1\u5ba41\u5385\u00a0\u00a0", "area": "41\u5e73\u7c73\u00a0\u00a0", "district": "\u5927\u5cea\u79df\u623f", "money": "2990", "see_num": "1", "floor": "\u9ad8\u697c\u5c42(\u51716\u5c42)", "time": "1998\u5e74\u5efa\u5854\u697c", "orientation": "\u897f\u5357", "city": "\u95e8\u5934\u6c9f"}
{"name": "\u6c5f\u5c71\u8d4b\u00a0\u00a0", "zone": "2\u5ba41\u5385\u00a0\u00a0", "area": "97\u5e73\u7c73\u00a0\u00a0", "district": "\u540e\u6c99\u5cea\u79df\u623f", "money": "7000", "see_num": "42", "floor": "\u4e2d\u697c\u5c42(\u51716\u5c42)", "time": "1998\u5e74\u5efa\u677f\u697c", "orientation": "\u5357 \u5317", "city": "\u987a\u4e49", "latitude": "116.665923,40.186753"}
{"name": "\u52a0\u5dde\u6c34\u90e1\u56db\u671f\u00a0\u00a0", "zone": "2\u5ba41\u5385\u00a0\u00a0", "area": "88\u5e73\u7c73\u00a0\u00a0", "district": "\u957f\u9633\u79df\u623f", "money": "3000", "see_num": "0", "floor": "\u9ad8\u697c\u5c42(\u517121\u5c42)", "time": "2014\u5e74\u5efa\u677f\u697c", "orientation": "\u5357", "city": "\u623f\u5c71"}
{"name": "\u5361\u5c14\u516c\u5bd3\u00a0\u00a0", "zone": "3\u5ba42\u5385\u00a0\u00a0", "area": "136\u5e73\u7c73\u00a0\u00a0", "district": "\u4ea6\u5e84\u79df\u623f", "money": "6900", "see_num": "26", "floor": "\u9ad8\u697c\u5c42(\u51719\u5c42)", "time": "2004\u5e74\u5efa\u677f\u697c", "orientation": "\u5357 \u5317", "city": "\u4ea6\u5e84\u5f00\u53d1\u533a"}
{"name": "\u4e8c\u91cc\u5e84\u5c0f\u533a\u00a0\u00a0", "zone": "1\u5ba41\u5385\u00a0\u00a0", "area": "43\u5e73\u7c73\u00a0\u00a0", "district": "\u4e8c\u91cc\u5e84\u79df\u623f", "money": "5100", "see_num": "30", "floor": "\u4e2d\u697c\u5c42(\u51714\u5c42)", "time": "2001\u5e74\u5efa\u677f\u697c", "orientation": "\u5357 \u5317", "city": "\u6d77\u6dc0"}
{"name": "\u53cc\u69d0\u91cc\u00a0\u00a0", "zone": "2\u5ba41\u5385\u00a0\u00a0", "area": "57\u5e73\u7c73\u00a0\u00a0", "district": "\u725b\u8857\u79df\u623f", "money": "5900", "see_num": "24", "floor": "\u4e2d\u697c\u5c42(\u51717\u5c42)", "time": "1990\u5e74\u5efa\u677f\u697c", "orientation": "\u5357 \u5317", "city": "\u897f\u57ce", "latitude": "116.392695,39.969608"}
{"name": "\u957f\u57ce\u56fd\u9645\u00a0\u00a0", "zone": "1\u5ba40\u5385\u00a0\u00a0", "area": "52\u5e73\u7c73\u00a0\u00a0", "district": "\u901a\u5dde\u5317\u82d1\u79df\u623f", "money": "3200", "see_num": "44", "floor": "\u4e2d\u697c\u5c42(\u517113\u5c42)", "time": "2007\u5e74\u5efa\u677f\u5854\u7ed3\u5408", "orientation": "\u4e1c", "city": "\u901a\u5dde", "latitude": "116.669921,39.88789"}
{"name": "\u6c38\u4e50\u4e1c\u533a\u00a0\u00a0", "zone": "1\u5ba41\u5385\u00a0\u00a0", "area": "43\u5e73\u7c73\u00a0\u00a0", "district": "\u9c81\u8c37\u79df\u623f", "money": "4100", "see_num": "27", "floor": "\u4f4e\u697c\u5c42(\u51716\u5c42)", "time": "1997\u5e74\u5efa\u677f\u697c", "orientation": "\u5357 \u5317", "city": "\u77f3\u666f\u5c71", "latitude": "116.191421,39.932563"}
{"name": "\u534e\u8d38\u57ce\u00a0\u00a0", "zone": "1\u5ba40\u5385\u00a0\u00a0", "area": "55\u5e73\u7c73\u00a0\u00a0", "district": "\u5317\u82d1\u79df\u623f", "money": "4800", "see_num": "5", "floor": "\u9ad8\u697c\u5c42(\u517125\u5c42)", "time": "2003\u5e74\u5efa\u5854\u697c", "orientation": "\u4e1c\u5357", "city": "\u671d\u9633", "latitude": "116.432802,40.043409"}
{"name": "\u4fdd\u5229\u8537\u8587\u00a0\u00a0", "zone": "2\u5ba41\u5385\u00a0\u00a0", "area": "95\u5e73\u7c73\u00a0\u00a0", "district": "\u5e7f\u6e20\u95e8\u79df\u623f", "money": "11000", "see_num": "11", "floor": "\u4e2d\u697c\u5c42(\u51716\u5c42)", "time": "1994\u5e74\u5efa\u677f\u697c", "orientation": "\u5357 \u5317", "city": "\u4e1c\u57ce"}
{"name": "\u91d1\u6cf0\u4e3d\u6e7e\u60a6\u6816\u5c71\u00a0\u00a0", "zone": "4\u5ba41\u5385\u00a0\u00a0", "area": "11\u5e73\u7c73\u00a0\u00a0", "district": "\u5927\u5cea\u79df\u623f", "money": "1590", "see_num": "0", "floor": "\u9ad8\u697c\u5c42(\u51716\u5c42)", "time": "1998\u5e74\u5efa\u5854\u697c", "orientation": "\u897f\u5357", "city": "\u95e8\u5934\u6c9f"}
{"name": "\u9999\u82b1\u7566\u5bb6\u56ed\u00a0\u00a0", "zone": "3\u5ba42\u5385\u00a0\u00a0", "area": "145\u5e73\u7c73\u00a0\u00a0", "district": "\u540e\u6c99\u5cea\u79df\u623f", "money": "9500", "see_num": "26", "floor": "\u4e2d\u697c\u5c42(\u51716\u5c42)", "time": "1998\u5e74\u5efa\u677f\u697c", "orientation": "\u5357 \u5317", "city": "\u987a\u4e49", "latitude": "116.665923,40.186753"}
{"name": "\u52a0\u5dde\u6c34\u90e1\u4e09\u671f\u00a0\u00a0", "zone": "2\u5ba41\u5385\u00a0\u00a0", "area": "83\u5e73\u7c73\u00a0\u00a0", "district": "\u957f\u9633\u79df\u623f", "money": "3200", "see_num": "2", "floor": "\u9ad8\u697c\u5c42(\u517121\u5c42)", "time": "2014\u5e74\u5efa\u677f\u697c", "orientation": "\u5357", "city": "\u623f\u5c71", "latitude": "116.193275,39.766293"}
{"name": "\u65b0\u5eb7\u5bb6\u56ed\u00a0\u00a0", "zone": "3\u5ba42\u5385\u00a0\u00a0", "area": "144\u5e73\u7c73\u00a0\u00a0", "district": "\u4ea6\u5e84\u79df\u623f", "money": "7500", "see_num": "18", "floor": "\u9ad8\u697c\u5c42(\u51719\u5c42)", "time": "2004\u5e74\u5efa\u677f\u697c", "orientation": "\u5357 \u5317", "city": "\u4ea6\u5e84\u5f00\u53d1\u533a", "latitude": "116.546899,39.755236"}
{"name": "\u8363\u4e0a\u5c45\u00a0\u00a0", "zone": "1\u5ba41\u5385\u00a0\u00a0", "area": "52\u5e73\u7c73\u00a0\u00a0", "district": "\u4e2d\u5173\u6751\u79df\u623f", "money": "6500", "see_num": "43", "floor": "\u4e2d\u697c\u5c42(\u51714\u5c42)", "time": "2001\u5e74\u5efa\u677f\u697c", "orientation": "\u5357 \u5317", "city": "\u6d77\u6dc0"}
{"name": "\u5357\u9732\u56ed\u00a0\u00a0", "zone": "2\u5ba41\u5385\u00a0\u00a0", "area": "63\u5e73\u7c73\u00a0\u00a0", "district": "\u961c\u6210\u95e8\u79df\u623f", "money": "6000", "see_num": "19", "floor": "\u4e2d\u697c\u5c42(\u51717\u5c42)", "time": "1990\u5e74\u5efa\u677f\u697c", "orientation": "\u5357 \u5317", "city": "\u897f\u57ce", "latitude": "116.392695,39.969608"}
{"name": "\u65b0\u57ce\u9633\u5149\u00a0\u00a0", "zone": "2\u5ba41\u5385\u00a0\u00a0", "area": "94\u5e73\u7c73\u00a0\u00a0", "district": "\u68a8\u56ed\u79df\u623f", "money": "4300", "see_num": "20", "floor": "\u4e2d\u697c\u5c42(\u517113\u5c42)", "time": "2007\u5e74\u5efa\u677f\u5854\u7ed3\u5408", "orientation": "\u4e1c", "city": "\u901a\u5dde", "latitude": "116.669921,39.88789"}
{"name": "\u53e4\u57ce\u5357\u8def\u00a0\u00a0", "zone": "2\u5ba41\u5385\u00a0\u00a0", "area": "57\u5e73\u7c73\u00a0\u00a0", "district": "\u53e4\u57ce\u79df\u623f", "money": "4200", "see_num": "13", "floor": "\u4f4e\u697c\u5c42(\u51716\u5c42)", "time": "1997\u5e74\u5efa\u677f\u697c", "orientation": "\u5357 \u5317", "city": "\u77f3\u666f\u5c71"}
{"name": "\u534e\u8d38\u57ce\u00a0\u00a0", "zone": "3\u5ba41\u5385\u00a0\u00a0", "area": "141\u5e73\u7c73\u00a0\u00a0", "district": "\u5317\u82d1\u79df\u623f", "money": "12500", "see_num": "8", "floor": "\u9ad8\u697c\u5c42(\u517125\u5c42)", "time": "2003\u5e74\u5efa\u5854\u697c", "orientation": "\u4e1c\u5357", "city": "\u671d\u9633", "latitude": "116.432802,40.043409"}
{"name": "\u534e\u5e9c\u666f\u56ed\u00a0\u00a0", "zone": "2\u5ba41\u5385\u00a0\u00a0", "area": "113\u5e73\u7c73\u00a0\u00a0", "district": "\u5b89\u5b9a\u95e8\u79df\u623f", "money": "12000", "see_num": "10", "floor": "\u4e2d\u697c\u5c42(\u51716\u5c42)", "time": "1994\u5e74\u5efa\u677f\u697c", "orientation": "\u5357 \u5317", "city": "\u4e1c\u57ce"}
{"name": "\u9701\u6708\u56ed\u00a0\u00a0", "zone": "1\u5ba41\u5385\u00a0\u00a0", "area": "45\u5e73\u7c73\u00a0\u00a0", "district": "\u6ee8\u6cb3\u897f\u533a\u79df\u623f", "money": "3090", "see_num": "0", "floor": "\u9ad8\u697c\u5c42(\u51716\u5c42)", "time": "1998\u5e74\u5efa\u5854\u697c", "orientation": "\u897f\u5357", "city": "\u95e8\u5934\u6c9f"}
{"name": "\u4e1c\u65b9\u592a\u9633\u57ce\u00a0\u00a0", "zone": "2\u5ba42\u5385\u00a0\u00a0", "area": "113\u5e73\u7c73\u00a0\u00a0", "district": "\u987a\u4e49\u5176\u5b83\u79df\u623f", "money": "6800", "see_num": "10", "floor": "\u4e2d\u697c\u5c42(\u51716\u5c42)", "time": "1998\u5e74\u5efa\u677f\u697c", "orientation": "\u5357 \u5317", "city": "\u987a\u4e49"}
{"name": "\u52a0\u5dde\u6c34\u90e1\u4e09\u671f\u00a0\u00a0", "zone": "1\u5ba41\u5385\u00a0\u00a0", "area": "58\u5e73\u7c73\u00a0\u00a0", "district": "\u957f\u9633\u79df\u623f", "money": "2600", "see_num": "9", "floor": "\u9ad8\u697c\u5c42(\u517121\u5c42)", "time": "2014\u5e74\u5efa\u677f\u697c", "orientation": "\u5357", "city": "\u623f\u5c71"}
{"name": "\u4e2d\u4fe1\u65b0\u57ce\u897f\u533a\u00a0\u00a0", "zone": "3\u5ba42\u5385\u00a0\u00a0", "area": "191\u5e73\u7c73\u00a0\u00a0", "district": "\u4ea6\u5e84\u5f00\u53d1\u533a\u5176\u5b83\u79df\u623f", "money": "9000", "see_num": "1", "floor": "\u9ad8\u697c\u5c42(\u51719\u5c42)", "time": "2004\u5e74\u5efa\u677f\u697c", "orientation": "\u5357 \u5317", "city": "\u4ea6\u5e84\u5f00\u53d1\u533a", "latitude": "116.546899,39.755236"}
{"name": "\u53cc\u6986\u6811\u897f\u91cc\u00a0\u00a0", "zone": "2\u5ba41\u5385\u00a0\u00a0", "area": "59\u5e73\u7c73\u00a0\u00a0", "district": "\u53cc\u6986\u6811\u79df\u623f", "money": "8300", "see_num": "31", "floor": "\u4e2d\u697c\u5c42(\u51714\u5c42)", "time": "2001\u5e74\u5efa\u677f\u697c", "orientation": "\u5357 \u5317", "city": "\u6d77\u6dc0"}
{"name": "\u5317\u793c\u58eb\u8def\u00a0\u00a0", "zone": "2\u5ba41\u5385\u00a0\u00a0", "area": "65\u5e73\u7c73\u00a0\u00a0", "district": "\u5b98\u56ed\u79df\u623f", "money": "10000", "see_num": "10", "floor": "\u4e2d\u697c\u5c42(\u51717\u5c42)", "time": "1990\u5e74\u5efa\u677f\u697c", "orientation": "\u5357 \u5317", "city": "\u897f\u57ce"}
{"name": "\u4eac\u8d38\u56fd\u9645\u516c\u5bd3\u00a0\u00a0", "zone": "2\u5ba41\u5385\u00a0\u00a0", "area": "95\u5e73\u7c73\u00a0\u00a0", "district": "\u901a\u5dde\u5317\u82d1\u79df\u623f", "money": "4500", "see_num": "25", "floor": "\u4e2d\u697c\u5c42(\u517113\u5c42)", "time": "2007\u5e74\u5efa\u677f\u5854\u7ed3\u5408", "orientation": "\u4e1c", "city": "\u901a\u5dde"}
{"name": "\u6a21\u5f0f\u53e3\u897f\u91cc\u00a0\u00a0", "zone": "2\u5ba41\u5385\u00a0\u00a0", "area": "66\u5e73\u7c73\u00a0\u00a0", "district": "\u82f9\u679c\u56ed\u79df\u623f", "money": "3300", "see_num": "8", "floor": "\u4f4e\u697c\u5c42(\u51716\u5c42)", "time": "1997\u5e74\u5efa\u677f\u697c", "orientation": "\u5357 \u5317", "city": "\u77f3\u666f\u5c71"}
{"name": "\u5bcc\u529b\u57ceD\u533a\u00a0\u00a0", "zone": "3\u5ba42\u5385\u00a0\u00a0", "area": "146\u5e73\u7c73\u00a0\u00a0", "district": "\u53cc\u4e95\u79df\u623f", "money": "16000", "see_num": "34", "floor": "\u9ad8\u697c\u5c42(\u517125\u5c42)", "time": "2003\u5e74\u5efa\u5854\u697c", "orientation": "\u4e1c\u5357", "city": "\u671d\u9633"}
{"name": "\u9752\u5e74\u6e56\u5317\u91cc\u00a0\u00a0", "zone": "2\u5ba41\u5385\u00a0\u00a0", "area": "98\u5e73\u7c73\u00a0\u00a0", "district": "\u5b89\u5b9a\u95e8\u79df\u623f", "money": "11000", "see_num": "13", "floor": "\u4e2d\u697c\u5c42(\u51716\u5c42)", "time": "1994\u5e74\u5efa\u677f\u697c", "orientation": "\u5357 \u5317", "city": "\u4e1c\u57ce"}
{}
{"name": "\u9ed1\u5c71A4\u533a\u00a0\u00a0", "zone": "3\u5ba41\u5385\u00a0\u00a0", "area": "6\u5e73\u7c73\u00a0\u00a0", "district": "\u5927\u5cea\u79df\u623f", "money": "1290", "see_num": "0", "floor": "\u9ad8\u697c\u5c42(\u51716\u5c42)", "time": "1998\u5e74\u5efa\u5854\u697c", "orientation": "\u897f\u5357", "city": "\u95e8\u5934\u6c9f"}
{"name": "\u9999\u60a6\u56db\u5b63\u00a0\u00a0", "zone": "3\u5ba41\u5385\u00a0\u00a0", "area": "95\u5e73\u7c73\u00a0\u00a0", "district": "\u9a6c\u5761\u79df\u623f", "money": "4500", "see_num": "0", "floor": "\u4e2d\u697c\u5c42(\u51716\u5c42)", "time": "1998\u5e74\u5efa\u677f\u697c", "orientation": "\u5357 \u5317", "city": "\u987a\u4e49"}
{"name": "\u957f\u9633\u534a\u5c9b3\u53f7\u9662\u00a0\u00a0", "zone": "2\u5ba41\u5385\u00a0\u00a0", "area": "85\u5e73\u7c73\u00a0\u00a0", "district": "\u957f\u9633\u79df\u623f", "money": "3900", "see_num": "7", "floor": "\u9ad8\u697c\u5c42(\u517121\u5c42)", "time": "2014\u5e74\u5efa\u677f\u697c", "orientation": "\u5357", "city": "\u623f\u5c71"}
{"name": "\u6797\u80af\u516c\u56ed\u00a0\u00a0", "zone": "2\u5ba42\u5385\u00a0\u00a0", "area": "92\u5e73\u7c73\u00a0\u00a0", "district": "\u4ea6\u5e84\u79df\u623f", "money": "7500", "see_num": "0", "floor": "\u9ad8\u697c\u5c42(\u51719\u5c42)", "time": "2004\u5e74\u5efa\u677f\u697c", "orientation": "\u5357 \u5317", "city": "\u4ea6\u5e84\u5f00\u53d1\u533a"}
{"name": "\u77e5\u6625\u8def82\u53f7\u9662\u00a0\u00a0", "zone": "2\u5ba42\u5385\u00a0\u00a0", "area": "65\u5e73\u7c73\u00a0\u00a0", "district": "\u53cc\u6986\u6811\u79df\u623f", "money": "8000", "see_num": "20", "floor": "\u4e2d\u697c\u5c42(\u51714\u5c42)", "time": "2001\u5e74\u5efa\u677f\u697c", "orientation": "\u5357 \u5317", "city": "\u6d77\u6dc0", "latitude": "116.386248,40.069552"}
{"name": "\u6708\u575b\u5317\u5c0f\u88571\u53f7\u9662\u00a0\u00a0", "zone": "1\u5ba41\u5385\u00a0\u00a0", "area": "60\u5e73\u7c73\u00a0\u00a0", "district": "\u6708\u575b\u79df\u623f", "money": "6300", "see_num": "8", "floor": "\u4e2d\u697c\u5c42(\u51717\u5c42)", "time": "1990\u5e74\u5efa\u677f\u697c", "orientation": "\u5357 \u5317", "city": "\u897f\u57ce"}
{"name": "\u4eac\u8d38\u56fd\u9645\u57ce\u897f\u533a\u00a0\u00a0", "zone": "2\u5ba42\u5385\u00a0\u00a0", "area": "92\u5e73\u7c73\u00a0\u00a0", "district": "\u6b66\u5937\u82b1\u56ed\u79df\u623f", "money": "4200", "see_num": "17", "floor": "\u4e2d\u697c\u5c42(\u517113\u5c42)", "time": "2007\u5e74\u5efa\u677f\u5854\u7ed3\u5408", "orientation": "\u4e1c", "city": "\u901a\u5dde", "latitude": "116.669921,39.88789"}
{"name": "\u6a21\u5f0f\u53e3\u897f\u91cc\u00a0\u00a0", "zone": "2\u5ba41\u5385\u00a0\u00a0", "area": "53\u5e73\u7c73\u00a0\u00a0", "district": "\u82f9\u679c\u56ed\u79df\u623f", "money": "3000", "see_num": "6", "floor": "\u4f4e\u697c\u5c42(\u51716\u5c42)", "time": "1997\u5e74\u5efa\u677f\u697c", "orientation": "\u5357 \u5317", "city": "\u77f3\u666f\u5c71"}
{"name": "\u4fdd\u5229\u5609\u56ed\u4e09\u53f7\u9662\u00a0\u00a0", "zone": "2\u5ba41\u5385\u00a0\u00a0", "area": "88\u5e73\u7c73\u00a0\u00a0", "district": "\u5e38\u8425\u79df\u623f", "money": "5600", "see_num": "27", "floor": "\u9ad8\u697c\u5c42(\u517125\u5c42)", "time": "2003\u5e74\u5efa\u5854\u697c", "orientation": "\u4e1c\u5357", "city": "\u671d\u9633", "latitude": "116.432802,40.043409"}
{"name": "\u6c34\u4e0a\u534e\u57ce\u00a0\u00a0", "zone": "2\u5ba41\u5385\u00a0\u00a0", "area": "110\u5e73\u7c73\u00a0\u00a0", "district": "\u5e7f\u6e20\u95e8\u79df\u623f", "money": "12000", "see_num": "12", "floor": "\u4e2d\u697c\u5c42(\u51716\u5c42)", "time": "1994\u5e74\u5efa\u677f\u697c", "orientation": "\u5357 \u5317", "city": "\u4e1c\u57ce"}
{"name": "\u60e0\u6c11\u5bb6\u56ed\u00a0\u00a0", "zone": "3\u5ba41\u5385\u00a0\u00a0", "area": "8\u5e73\u7c73\u00a0\u00a0", "district": "\u5927\u5cea\u79df\u623f", "money": "1530", "see_num": "0", "floor": "\u9ad8\u697c\u5c42(\u51716\u5c42)", "time": "1998\u5e74\u5efa\u5854\u697c", "orientation": "\u897f\u5357", "city": "\u95e8\u5934\u6c9f"}
{"name": "\u897f\u8f9b\u5317\u533a\u00a0\u00a0", "zone": "3\u5ba41\u5385\u00a0\u00a0", "area": "103\u5e73\u7c73\u00a0\u00a0", "district": "\u987a\u4e49\u57ce\u79df\u623f", "money": "3600", "see_num": "13", "floor": "\u4e2d\u697c\u5c42(\u51716\u5c42)", "time": "1998\u5e74\u5efa\u677f\u697c", "orientation": "\u5357 \u5317", "city": "\u987a\u4e49"}
{"name": "\u5317\u6f5e\u6625\u5bb6\u56ed\u00a0\u00a0", "zone": "2\u5ba41\u5385\u00a0\u00a0", "area": "71\u5e73\u7c73\u00a0\u00a0", "district": "\u826f\u4e61\u79df\u623f", "money": "2300", "see_num": "2", "floor": "\u9ad8\u697c\u5c42(\u517121\u5c42)", "time": "2014\u5e74\u5efa\u677f\u697c", "orientation": "\u5357", "city": "\u623f\u5c71", "latitude": "116.193275,39.766293"}
{"name": "\u5361\u5c14\u516c\u5bd3\u00a0\u00a0", "zone": "3\u5ba42\u5385\u00a0\u00a0", "area": "137\u5e73\u7c73\u00a0\u00a0", "district": "\u4ea6\u5e84\u79df\u623f", "money": "7000", "see_num": "30", "floor": "\u9ad8\u697c\u5c42(\u51719\u5c42)", "time": "2004\u5e74\u5efa\u677f\u697c", "orientation": "\u5357 \u5317", "city": "\u4ea6\u5e84\u5f00\u53d1\u533a"}
{"name": "\u5854\u9662\u5c0f\u533a\u00a0\u00a0", "zone": "2\u5ba41\u5385\u00a0\u00a0", "area": "57\u5e73\u7c73\u00a0\u00a0", "district": "\u7261\u4e39\u56ed\u79df\u623f", "money": "7100", "see_num": "42", "floor": "\u4e2d\u697c\u5c42(\u51714\u5c42)", "time": "2001\u5e74\u5efa\u677f\u697c", "orientation": "\u5357 \u5317", "city": "\u6d77\u6dc0"}
{"name": "\u8336\u8d38\u56fd\u9645\u4e2d\u5fc3\u00a0\u00a0", "zone": "1\u623f\u95f41\u536b\u00a0\u00a0", "area": "34\u5e73\u7c73\u00a0\u00a0", "district": "\u9a6c\u8fde\u9053\u79df\u623f", "money": "3500", "see_num": "25", "floor": "\u4e2d\u697c\u5c42(\u51717\u5c42)", "time": "1990\u5e74\u5efa\u677f\u697c", "orientation": "\u5357 \u5317", "city": "\u897f\u57ce"}
{"name": "\u8fd0\u6cb3\u6e7e\u00a0\u00a0", "zone": "3\u5ba42\u5385\u00a0\u00a0", "area": "129\u5e73\u7c73\u00a0\u00a0", "district": "\u6b66\u5937\u82b1\u56ed\u79df\u623f", "money": "5800", "see_num": "11", "floor": "\u4e2d\u697c\u5c42(\u517113\u5c42)", "time": "2007\u5e74\u5efa\u677f\u5854\u7ed3\u5408", "orientation": "\u4e1c", "city": "\u901a\u5dde"}
{"name": "\u4e03\u661f\u56ed\u00a0\u00a0", "zone": "2\u5ba41\u5385\u00a0\u00a0", "area": "63\u5e73\u7c73\u00a0\u00a0", "district": "\u9c81\u8c37\u79df\u623f", "money": "3800", "see_num": "8", "floor": "\u4f4e\u697c\u5c42(\u51716\u5c42)", "time": "1997\u5e74\u5efa\u677f\u697c", "orientation": "\u5357 \u5317", "city": "\u77f3\u666f\u5c71", "latitude": "116.191421,39.932563"}
{"name": "\u5bcc\u529b\u57ceD\u533a\u00a0\u00a0", "zone": "1\u5ba42\u5385\u00a0\u00a0", "area": "111\u5e73\u7c73\u00a0\u00a0", "district": "\u53cc\u4e95\u79df\u623f", "money": "16500", "see_num": "25", "floor": "\u9ad8\u697c\u5c42(\u517125\u5c42)", "time": "2003\u5e74\u5efa\u5854\u697c", "orientation": "\u4e1c\u5357", "city": "\u671d\u9633", "latitude": "116.432802,40.043409"}
{"name": "\u4ea4\u9053\u53e3\u4e1c\u5927\u8857\u00a0\u00a0", "zone": "2\u5ba41\u5385\u00a0\u00a0", "area": "72\u5e73\u7c73\u00a0\u00a0", "district": "\u4ea4\u9053\u53e3\u79df\u623f", "money": "9000", "see_num": "4", "floor": "\u4e2d\u697c\u5c42(\u51716\u5c42)", "time": "1994\u5e74\u5efa\u677f\u697c", "orientation": "\u5357 \u5317", "city": "\u4e1c\u57ce"}
{"name": "\u4e34\u955c\u82d1\u00a0\u00a0", "zone": "3\u5ba41\u5385\u00a0\u00a0", "area": "13\u5e73\u7c73\u00a0\u00a0", "district": "\u6ee8\u6cb3\u897f\u533a\u79df\u623f", "money": "1890", "see_num": "0", "floor": "\u9ad8\u697c\u5c42(\u51716\u5c42)", "time": "1998\u5e74\u5efa\u5854\u697c", "orientation": "\u897f\u5357", "city": "\u95e8\u5934\u6c9f"}
{"name": "\u88d5\u9f99\u4e09\u533a\u00a0\u00a0", "zone": "2\u5ba41\u5385\u00a0\u00a0", "area": "94\u5e73\u7c73\u00a0\u00a0", "district": "\u987a\u4e49\u57ce\u79df\u623f", "money": "4000", "see_num": "10", "floor": "\u4e2d\u697c\u5c42(\u51716\u5c42)", "time": "1998\u5e74\u5efa\u677f\u697c", "orientation": "\u5357 \u5317", "city": "\u987a\u4e49", "latitude": "116.665923,40.186753"}
{"name": "\u7fe0\u6797\u6f2b\u6b65\u00a0\u00a0", "zone": "2\u5ba42\u5385\u00a0\u00a0", "area": "90\u5e73\u7c73\u00a0\u00a0", "district": "\u957f\u9633\u79df\u623f", "money": "4200", "see_num": "2", "floor": "\u9ad8\u697c\u5c42(\u517121\u5c42)", "time": "2014\u5e74\u5efa\u677f\u697c", "orientation": "\u5357", "city": "\u623f\u5c71"}
{"name": "\u4e2d\u4fe1\u65b0\u57ce\u4e1c\u533a\u00a0\u00a0", "zone": "3\u5ba41\u5385\u00a0\u00a0", "area": "86\u5e73\u7c73\u00a0\u00a0", "district": "\u4ea6\u5e84\u5f00\u53d1\u533a\u5176\u5b83\u79df\u623f", "money": "5500", "see_num": "11", "floor": "\u9ad8\u697c\u5c42(\u51719\u5c42)", "time": "2004\u5e74\u5efa\u677f\u697c", "orientation": "\u5357 \u5317", "city": "\u4ea6\u5e84\u5f00\u53d1\u533a"}
{"name": "\u6625\u836b\u56ed\u00a0\u00a0", "zone": "4\u5ba42\u5385\u00a0\u00a0", "area": "209\u5e73\u7c73\u00a0\u00a0", "district": "\u4e16\u7eaa\u57ce\u79df\u623f", "money": "21500", "see_num": "28", "floor": "\u4e2d\u697c\u5c42(\u51714\u5c42)", "time": "2001\u5e74\u5efa\u677f\u697c", "orientation": "\u5357 \u5317", "city": "\u6d77\u6dc0"}
{"name": "\u8fdc\u89c1\u540d\u82d1\u00a0\u00a0", "zone": "1\u5ba41\u5385\u00a0\u00a0", "area": "50\u5e73\u7c73\u00a0\u00a0", "district": "\u5e7f\u5b89\u95e8\u79df\u623f", "money": "5600", "see_num": "53", "floor": "\u4e2d\u697c\u5c42(\u51717\u5c42)", "time": "1990\u5e74\u5efa\u677f\u697c", "orientation": "\u5357 \u5317", "city": "\u897f\u57ce"}
{"name": "\u65b0\u534e\u8054\u5bb6\u56ed\u5357\u533a\u00a0\u00a0", "zone": "3\u5ba42\u5385\u00a0\u00a0", "area": "126\u5e73\u7c73\u00a0\u00a0", "district": "\u679c\u56ed\u79df\u623f", "money": "5800", "see_num": "10", "floor": "\u4e2d\u697c\u5c42(\u517113\u5c42)", "time": "2007\u5e74\u5efa\u677f\u5854\u7ed3\u5408", "orientation": "\u4e1c", "city": "\u901a\u5dde"}
{"name": "\u82f9\u679c\u56ed\u5c0f\u533a\u4e09\u533a\u00a0\u00a0", "zone": "2\u5ba41\u5385\u00a0\u00a0", "area": "74\u5e73\u7c73\u00a0\u00a0", "district": "\u82f9\u679c\u56ed\u79df\u623f", "money": "4300", "see_num": "15", "floor": "\u4f4e\u697c\u5c42(\u51716\u5c42)", "time": "1997\u5e74\u5efa\u677f\u697c", "orientation": "\u5357 \u5317", "city": "\u77f3\u666f\u5c71", "latitude": "116.191421,39.932563"}
{"name": "\u6da6\u67ab\u6c34\u5c1a\u00a0\u00a0", "zone": "2\u5ba42\u5385\u00a0\u00a0", "area": "103\u5e73\u7c73\u00a0\u00a0", "district": "\u671d\u9752\u79df\u623f", "money": "9500", "see_num": "35", "floor": "\u9ad8\u697c\u5c42(\u517125\u5c42)", "time": "2003\u5e74\u5efa\u5854\u697c", "orientation": "\u4e1c\u5357", "city": "\u671d\u9633", "latitude": "116.432802,40.043409"}
{"name": "\u6c11\u65fa\u56ed\u00a0\u00a0", "zone": "2\u5ba41\u5385\u00a0\u00a0", "area": "55\u5e73\u7c73\u00a0\u00a0", "district": "\u548c\u5e73\u91cc\u79df\u623f", "money": "5000", "see_num": "1", "floor": "\u4e2d\u697c\u5c42(\u51716\u5c42)", "time": "1994\u5e74\u5efa\u677f\u697c", "orientation": "\u5357 \u5317", "city": "\u4e1c\u57ce", "latitude": "116.418938,39.946011"}
{"name": "\u77f3\u95e8\u8425\u65b0\u533a\u4e94\u533a\u00a0\u00a0", "zone": "3\u5ba41\u5385\u00a0\u00a0", "area": "7\u5e73\u7c73\u00a0\u00a0", "district": "\u77f3\u95e8\u8425\u79df\u623f", "money": "1390", "see_num": "0", "floor": "\u9ad8\u697c\u5c42(\u51716\u5c42)", "time": "1998\u5e74\u5efa\u5854\u697c", "orientation": "\u897f\u5357", "city": "\u95e8\u5934\u6c9f"}
{"name": "\u6c5f\u5c71\u8d4b\u00a0\u00a0", "zone": "4\u5ba41\u5385\u00a0\u00a0", "area": "150\u5e73\u7c73\u00a0\u00a0", "district": "\u540e\u6c99\u5cea\u79df\u623f", "money": "13000", "see_num": "24", "floor": "\u4e2d\u697c\u5c42(\u51716\u5c42)", "time": "1998\u5e74\u5efa\u677f\u697c", "orientation": "\u5357 \u5317", "city": "\u987a\u4e49", "latitude": "116.665923,40.186753"}
{"name": "\u78a7\u6842\u56ed\u5c0f\u533aC\u533a\u00a0\u00a0", "zone": "2\u5ba41\u5385\u00a0\u00a0", "area": "92\u5e73\u7c73\u00a0\u00a0", "district": "\u957f\u9633\u79df\u623f", "money": "3200", "see_num": "18", "floor": "\u9ad8\u697c\u5c42(\u517121\u5c42)", "time": "2014\u5e74\u5efa\u677f\u697c", "orientation": "\u5357", "city": "\u623f\u5c71", "latitude": "116.193275,39.766293"}
{"name": "\u65b0\u5eb7\u5bb6\u56ed\u00a0\u00a0", "zone": "3\u5ba41\u5385\u00a0\u00a0", "area": "143\u5e73\u7c73\u00a0\u00a0", "district": "\u4ea6\u5e84\u79df\u623f", "money": "7500", "see_num": "12", "floor": "\u9ad8\u697c\u5c42(\u51719\u5c42)", "time": "2004\u5e74\u5efa\u677f\u697c", "orientation": "\u5357 \u5317", "city": "\u4ea6\u5e84\u5f00\u53d1\u533a"}
{"name": "\u5927\u6ce5\u6e7e\u00a0\u00a0", "zone": "2\u5ba41\u5385\u00a0\u00a0", "area": "58\u5e73\u7c73\u00a0\u00a0", "district": "\u4e2d\u5173\u6751\u79df\u623f", "money": "8000", "see_num": "6", "floor": "\u4e2d\u697c\u5c42(\u51714\u5c42)", "time": "2001\u5e74\u5efa\u677f\u697c", "orientation": "\u5357 \u5317", "city": "\u6d77\u6dc0", "latitude": "116.386248,40.069552"}
{"name": "\u65b0\u6587\u5316\u8857\u00a0\u00a0", "zone": "2\u5ba41\u5385\u00a0\u00a0", "area": "51\u5e73\u7c73\u00a0\u00a0", "district": "\u91d1\u878d\u8857\u79df\u623f", "money": "6400", "see_num": "33", "floor": "\u4e2d\u697c\u5c42(\u51717\u5c42)", "time": "1990\u5e74\u5efa\u677f\u697c", "orientation": "\u5357 \u5317", "city": "\u897f\u57ce"}
{"name": "\u534e\u9f99\u5c0f\u533a\u00a0\u00a0", "zone": "2\u5ba41\u5385\u00a0\u00a0", "area": "96\u5e73\u7c73\u00a0\u00a0", "district": "\u6f5e\u82d1\u79df\u623f", "money": "2600", "see_num": "10", "floor": "\u4e2d\u697c\u5c42(\u517113\u5c42)", "time": "2007\u5e74\u5efa\u677f\u5854\u7ed3\u5408", "orientation": "\u4e1c", "city": "\u901a\u5dde"}
{"name": "\u8fdc\u6d0b\u5c71\u6c34\u00a0\u00a0", "zone": "2\u5ba41\u5385\u00a0\u00a0", "area": "109\u5e73\u7c73\u00a0\u00a0", "district": "\u9c81\u8c37\u79df\u623f", "money": "7500", "see_num": "31", "floor": "\u4f4e\u697c\u5c42(\u51716\u5c42)", "time": "1997\u5e74\u5efa\u677f\u697c", "orientation": "\u5357 \u5317", "city": "\u77f3\u666f\u5c71"}
{"name": "\u4e3d\u90fd\u58f9\u53f7\u00a0\u00a0", "zone": "2\u5ba41\u5385\u00a0\u00a0", "area": "85\u5e73\u7c73\u00a0\u00a0", "district": "\u9152\u4ed9\u6865\u79df\u623f", "money": "11000", "see_num": "41", "floor": "\u9ad8\u697c\u5c42(\u517125\u5c42)", "time": "2003\u5e74\u5efa\u5854\u697c", "orientation": "\u4e1c\u5357", "city": "\u671d\u9633", "latitude": "116.432802,40.043409"}
{"name": "\u6c11\u65fa\u56ed\u00a0\u00a0", "zone": "2\u5ba41\u5385\u00a0\u00a0", "area": "64\u5e73\u7c73\u00a0\u00a0", "district": "\u548c\u5e73\u91cc\u79df\u623f", "money": "5500", "see_num": "3", "floor": "\u4e2d\u697c\u5c42(\u51716\u5c42)", "time": "1994\u5e74\u5efa\u677f\u697c", "orientation": "\u5357 \u5317", "city": "\u4e1c\u57ce", "latitude": "116.418938,39.946011"}
{"name": "\u9ed1\u5c71A4\u533a\u00a0\u00a0", "zone": "1\u5ba41\u5385\u00a0\u00a0", "area": "41\u5e73\u7c73\u00a0\u00a0", "district": "\u5927\u5cea\u79df\u623f", "money": "2890", "see_num": "0", "floor": "\u9ad8\u697c\u5c42(\u51716\u5c42)", "time": "1998\u5e74\u5efa\u5854\u697c", "orientation": "\u897f\u5357", "city": "\u95e8\u5934\u6c9f"}
{"name": "\u9c81\u80fd7\u53f7\u9662\u9890\u666f\u6eaa\u56ed\u00a0\u00a0", "zone": "2\u5ba42\u5385\u00a0\u00a0", "area": "85\u5e73\u7c73\u00a0\u00a0", "district": "\u9a6c\u5761\u79df\u623f", "money": "3800", "see_num": "4", "floor": "\u4e2d\u697c\u5c42(\u51716\u5c42)", "time": "1998\u5e74\u5efa\u677f\u697c", "orientation": "\u5357 \u5317", "city": "\u987a\u4e49", "latitude": "116.665923,40.186753"}
{"name": "\u82ad\u857e\u96e8\u60a6\u90fd\u5357\u533a\u00a0\u00a0", "zone": "3\u5ba41\u5385\u00a0\u00a0", "area": "90\u5e73\u7c73\u00a0\u00a0", "district": "\u957f\u9633\u79df\u623f", "money": "4500", "see_num": "14", "floor": "\u9ad8\u697c\u5c42(\u517121\u5c42)", "time": "2014\u5e74\u5efa\u677f\u697c", "orientation": "\u5357", "city": "\u623f\u5c71", "latitude": "116.193275,39.766293"}
{"name": "\u661f\u5c9b\u5047\u65e5\u00a0\u00a0", "zone": "3\u5ba42\u5385\u00a0\u00a0", "area": "140\u5e73\u7c73\u00a0\u00a0", "district": "\u4ea6\u5e84\u79df\u623f", "money": "9600", "see_num": "6", "floor": "\u9ad8\u697c\u5c42(\u51719\u5c42)", "time": "2004\u5e74\u5efa\u677f\u697c", "orientation": "\u5357 \u5317", "city": "\u4ea6\u5e84\u5f00\u53d1\u533a"}
{"name": "\u83b1\u5733\u5bb6\u56ed\u00a0\u00a0", "zone": "2\u5ba42\u5385\u00a0\u00a0", "area": "87\u5e73\u7c73\u00a0\u00a0", "district": "\u6e05\u6cb3\u79df\u623f", "money": "6600", "see_num": "27", "floor": "\u4e2d\u697c\u5c42(\u51714\u5c42)", "time": "2001\u5e74\u5efa\u677f\u697c", "orientation": "\u5357 \u5317", "city": "\u6d77\u6dc0", "latitude": "116.386248,40.069552"}
{"name": "\u94c1\u4e8c\u533a\u00a0\u00a0", "zone": "2\u5ba41\u5385\u00a0\u00a0", "area": "57\u5e73\u7c73\u00a0\u00a0", "district": "\u6708\u575b\u79df\u623f", "money": "7000", "see_num": "13", "floor": "\u4e2d\u697c\u5c42(\u51717\u5c42)", "time": "1990\u5e74\u5efa\u677f\u697c", "orientation": "\u5357 \u5317", "city": "\u897f\u57ce", "latitude": "116.392695,39.969608"}
{"name": "\u4eac\u8d38\u56fd\u9645\u57ce\u897f\u533a\u00a0\u00a0", "zone": "2\u5ba41\u5385\u00a0\u00a0", "area": "74\u5e73\u7c73\u00a0\u00a0", "district": "\u6b66\u5937\u82b1\u56ed\u79df\u623f", "money": "3700", "see_num": "9", "floor": "\u4e2d\u697c\u5c42(\u517113\u5c42)", "time": "2007\u5e74\u5efa\u677f\u5854\u7ed3\u5408", "orientation": "\u4e1c", "city": "\u901a\u5dde"}
{"name": "\u91d1\u9876\u8857\u4e00\u533a\u00a0\u00a0", "zone": "2\u5ba41\u5385\u00a0\u00a0", "area": "47\u5e73\u7c73\u00a0\u00a0", "district": "\u82f9\u679c\u56ed\u79df\u623f", "money": "3600", "see_num": "6", "floor": "\u4f4e\u697c\u5c42(\u51716\u5c42)", "time": "1997\u5e74\u5efa\u677f\u697c", "orientation": "\u5357 \u5317", "city": "\u77f3\u666f\u5c71", "latitude": "116.191421,39.932563"}
{"name": "\u4fdd\u5229\u5609\u56ed\u4e09\u53f7\u9662\u00a0\u00a0", "zone": "2\u5ba41\u5385\u00a0\u00a0", "area": "89\u5e73\u7c73\u00a0\u00a0", "district": "\u5e38\u8425\u79df\u623f", "money": "5600", "see_num": "47", "floor": "\u9ad8\u697c\u5c42(\u517125\u5c42)", "time": "2003\u5e74\u5efa\u5854\u697c", "orientation": "\u4e1c\u5357", "city": "\u671d\u9633"}
{"name": "\u6d77\u665f\u56fd\u9645\u516c\u5bd3\u00a0\u00a0", "zone": "1\u5ba41\u5385\u00a0\u00a0", "area": "93\u5e73\u7c73\u00a0\u00a0", "district": "\u5de5\u4f53\u79df\u623f", "money": "13000", "see_num": "4", "floor": "\u4e2d\u697c\u5c42(\u51716\u5c42)", "time": "1994\u5e74\u5efa\u677f\u697c", "orientation": "\u5357 \u5317", "city": "\u4e1c\u57ce", "latitude": "116.418938,39.946011"}
{"name": "\u91d1\u6cf0\u4e3d\u6e7e\u60a6\u6816\u5c71\u00a0\u00a0", "zone": "4\u5ba41\u5385\u00a0\u00a0", "area": "11\u5e73\u7c73\u00a0\u00a0", "district": "\u5927\u5cea\u79df\u623f", "money": "1990", "see_num": "0", "floor": "\u9ad8\u697c\u5c42(\u51716\u5c42)", "time": "1998\u5e74\u5efa\u5854\u697c", "orientation": "\u897f\u5357", "city": "\u95e8\u5934\u6c9f"}
{"name": "\u4e1c\u65b9\u592a\u9633\u57ce\u00a0\u00a0", "zone": "3\u5ba41\u5385\u00a0\u00a0", "area": "103\u5e73\u7c73\u00a0\u00a0", "district": "\u987a\u4e49\u5176\u5b83\u79df\u623f", "money": "5000", "see_num": "5", "floor": "\u4e2d\u697c\u5c42(\u51716\u5c42)", "time": "1998\u5e74\u5efa\u677f\u697c", "orientation": "\u5357 \u5317", "city": "\u987a\u4e49", "latitude": "116.665923,40.186753"}
{"name": "\u78a7\u6842\u56ed\u5c0f\u533aA\u533a\u00a0\u00a0", "zone": "3\u5ba41\u5385\u00a0\u00a0", "area": "118\u5e73\u7c73\u00a0\u00a0", "district": "\u957f\u9633\u79df\u623f", "money": "3500", "see_num": "0", "floor": "\u9ad8\u697c\u5c42(\u517121\u5c42)", "time": "2014\u5e74\u5efa\u677f\u697c", "orientation": "\u5357", "city": "\u623f\u5c71"}
{"name": "\u535a\u5ba2\u96c5\u5c45\u00a0\u00a0", "zone": "3\u5ba41\u5385\u00a0\u00a0", "area": "104\u5e73\u7c73\u00a0\u00a0", "district": "\u4ea6\u5e84\u79df\u623f", "money": "6500", "see_num": "13", "floor": "\u9ad8\u697c\u5c42(\u51719\u5c42)", "time": "2004\u5e74\u5efa\u677f\u697c", "orientation": "\u5357 \u5317", "city": "\u4ea6\u5e84\u5f00\u53d1\u533a"}
{"name": "\u77e5\u6625\u4e1c\u91cc\u00a0\u00a0", "zone": "3\u5ba41\u5385\u00a0\u00a0", "area": "84\u5e73\u7c73\u00a0\u00a0", "district": "\u53cc\u6986\u6811\u79df\u623f", "money": "10200", "see_num": "12", "floor": "\u4e2d\u697c\u5c42(\u51714\u5c42)", "time": "2001\u5e74\u5efa\u677f\u697c", "orientation": "\u5357 \u5317", "city": "\u6d77\u6dc0"}
{"name": "\u6708\u575b\u5317\u8857\u00a0\u00a0", "zone": "2\u5ba41\u5385\u00a0\u00a0", "area": "54\u5e73\u7c73\u00a0\u00a0", "district": "\u6708\u575b\u79df\u623f", "money": "7800", "see_num": "10", "floor": "\u4e2d\u697c\u5c42(\u51717\u5c42)", "time": "1990\u5e74\u5efa\u677f\u697c", "orientation": "\u5357 \u5317", "city": "\u897f\u57ce", "latitude": "116.392695,39.969608"}
{"name": "\u5929\u65f6\u540d\u82d1\u00a0\u00a0", "zone": "2\u5ba41\u5385\u00a0\u00a0", "area": "67\u5e73\u7c73\u00a0\u00a0", "district": "\u901a\u5dde\u5317\u82d1\u79df\u623f", "money": "4400", "see_num": "9", "floor": "\u4e2d\u697c\u5c42(\u517113\u5c42)", "time": "2007\u5e74\u5efa\u677f\u5854\u7ed3\u5408", "orientation": "\u4e1c", "city": "\u901a\u5dde"}
{"name": "\u82f9\u679c\u56ed\u5c0f\u533a\u4e8c\u533a\u00a0\u00a0", "zone": "2\u5ba41\u5385\u00a0\u00a0", "area": "72\u5e73\u7c73\u00a0\u00a0", "district": "\u82f9\u679c\u56ed\u79df\u623f", "money": "4200", "see_num": "25", "floor": "\u4f4e\u697c\u5c42(\u51716\u5c42)", "time": "1997\u5e74\u5efa\u677f\u697c", "orientation": "\u5357 \u5317", "city": "\u77f3\u666f\u5c71"}
{"name": "\u534e\u817e\u56ed\u00a0\u00a0", "zone": "2\u5ba42\u5385\u00a0\u00a0", "area": "93\u5e73\u7c73\u00a0\u00a0", "district": "\u52b2\u677e\u79df\u623f", "money": "7800", "see_num": "33", "floor": "\u9ad8\u697c\u5c42(\u517125\u5c42)", "time": "2003\u5e74\u5efa\u5854\u697c", "orientation": "\u4e1c\u5357", "city": "\u671d\u9633", "latitude": "116.432802,40.043409"}
{"name": "\u5317\u5b98\u5385\u80e1\u540c\u00a0\u00a0", "zone": "2\u5ba41\u5385\u00a0\u00a0", "area": "53\u5e73\u7c73\u00a0\u00a0", "district": "\u4e1c\u76f4\u95e8\u79df\u623f", "money": "6500", "see_num": "79", "floor": "\u4e2d\u697c\u5c42(\u51716\u5c42)", "time": "1994\u5e74\u5efa\u677f\u697c", "orientation": "\u5357 \u5317", "city": "\u4e1c\u57ce"}
{"name": "\u91d1\u6cf0\u4e3d\u6e7e\u60a6\u6816\u5c71\u00a0\u00a0", "zone": "1\u5ba41\u5385\u00a0\u00a0", "area": "41\u5e73\u7c73\u00a0\u00a0", "district": "\u5927\u5cea\u79df\u623f", "money": "2990", "see_num": "0", "floor": "\u9ad8\u697c\u5c42(\u51716\u5c42)", "time": "1998\u5e74\u5efa\u5854\u697c", "orientation": "\u897f\u5357", "city": "\u95e8\u5934\u6c9f"}
{"name": "\u4e1c\u65b9\u592a\u9633\u57ce\u00a0\u00a0", "zone": "3\u5ba41\u5385\u00a0\u00a0", "area": "131\u5e73\u7c73\u00a0\u00a0", "district": "\u987a\u4e49\u5176\u5b83\u79df\u623f", "money": "5300", "see_num": "17", "floor": "\u4e2d\u697c\u5c42(\u51716\u5c42)", "time": "1998\u5e74\u5efa\u677f\u697c", "orientation": "\u5357 \u5317", "city": "\u987a\u4e49"}
{"name": "\u4f1f\u4e1a\u5609\u56ed\u897f\u91cc\u00a0\u00a0", "zone": "1\u5ba41\u5385\u00a0\u00a0", "area": "46\u5e73\u7c73\u00a0\u00a0", "district": "\u826f\u4e61\u79df\u623f", "money": "1300", "see_num": "26", "floor": "\u9ad8\u697c\u5c42(\u517121\u5c42)", "time": "2014\u5e74\u5efa\u677f\u697c", "orientation": "\u5357", "city": "\u623f\u5c71"}
{"name": "\u67ab\u4e39\u58f9\u865f\u00a0\u00a0", "zone": "4\u5ba42\u5385\u00a0\u00a0", "area": "147\u5e73\u7c73\u00a0\u00a0", "district": "\u4ea6\u5e84\u5f00\u53d1\u533a\u5176\u5b83\u79df\u623f", "money": "10000", "see_num": "5", "floor": "\u9ad8\u697c\u5c42(\u51719\u5c42)", "time": "2004\u5e74\u5efa\u677f\u697c", "orientation": "\u5357 \u5317", "city": "\u4ea6\u5e84\u5f00\u53d1\u533a"}
{"name": "\u6c11\u65cf\u5927\u5b66\u9644\u5c5e\u4e2d\u5b66\u5bb6\u5c5e\u697c\u00a0\u00a0", "zone": "3\u5ba41\u5385\u00a0\u00a0", "area": "84\u5e73\u7c73\u00a0\u00a0", "district": "\u9b4f\u516c\u6751\u79df\u623f", "money": "9000", "see_num": "51", "floor": "\u4e2d\u697c\u5c42(\u51714\u5c42)", "time": "2001\u5e74\u5efa\u677f\u697c", "orientation": "\u5357 \u5317", "city": "\u6d77\u6dc0"}
{"name": "\u9ed1\u7a91\u5382\u897f\u91cc\u00a0\u00a0", "zone": "2\u5ba41\u5385\u00a0\u00a0", "area": "40\u5e73\u7c73\u00a0\u00a0", "district": "\u9676\u7136\u4ead\u79df\u623f", "money": "6400", "see_num": "12", "floor": "\u4e2d\u697c\u5c42(\u51717\u5c42)", "time": "1990\u5e74\u5efa\u677f\u697c", "orientation": "\u5357 \u5317", "city": "\u897f\u57ce"}
